[
{"disruption_ids": [], "stop_suburb": "Brunswick East", "route_type": 1, "stop_latitude": -37.7697868, "stop_longitude": 144.971954, "stop_sequence": 0, "stop_ticket": {"ticket_type": "", "zone": "Zone 1", "is_free_fare_zone": false, "ticket_machine": false, "ticket_checks": false, "vline_reservation": false, "ticket_zones": [1]}, "stop_id": 2227, "stop_name": "Albert St/Lygon St #123", "stop_landmark": ""},
{"disruption_ids": [], "stop_suburb": "Brunswick East", "route_type": 1, "stop_latitude": -37.76189, "stop_longitude": 144.97406, "stop_sequence": 0, "stop_ticket": {"ticket_type": "", "zone": "Zone 1", "is_free_fare_zone": false, "ticket_machine": false, "ticket_checks": false, "vline_reservation": false, "ticket_zones": [1]}, "stop_id": 2240, "stop_name": "Albion St/Holmes St #127", "stop_landmark": ""},
{"disruption_ids": [], "stop_suburb": "Brunswick East", "route_type": 1, "stop_latitude": -37.76237, "stop_longitude": 144.973267, "stop_sequence": 0, "stop_ticket": {"ticket_type": "", "zone": "Zone 1", "is_free_fare_zone": false, "ticket_machine": false, "ticket_checks": false, "vline_reservation": false, "ticket_zones": [1]}, "stop_id": 2231, "stop_name": "Albion St/Lygon St #127", "stop_landmark": ""},
{"disruption_ids": [], "stop_suburb": "Southbank", "route_type": 1, "stop_latitude": -37.8218422, "stop_longitude": 144.969513, "stop_sequence": 0, "stop_ticket": {"ticket_type": "", "zone": "Zone 1", "is_free_fare_zone": false, "ticket_machine": true, "ticket_checks": false, "vline_reservation": false, "ticket_zones": [1]}, "stop_id": 2203, "stop_name": "Arts Precinct/St Kilda Rd #14", "stop_landmark": "Arts Precinct"},
{"disruption_ids": [], "stop_suburb": "Southbank", "route_type": 1, "stop_latitude": -37.8238144, "stop_longitude": 144.967255, "stop_sequence": 0, "stop_ticket": {"ticket_type": "", "zone": "Zone 1", "is_free_fare_zone": false, "ticket_machine": false, "ticket_checks": false, "vline_reservation": false, "ticket_zones": [1]}, "stop_id": 2266, "stop_name": "Arts Precinct/Sturt St #17", "stop_landmark": "Arts Precinct"},
{"disruption_ids": [], "stop_suburb": "Albert Park", "route_type": 1, "stop_latitude": -37.847126, "stop_longitude": 144.94873, "stop_sequence": 0, "stop_ticket": {"ticket_type": "", "zone": "Zone 1", "is_free_fare_zone": false, "ticket_machine": false, "ticket_checks": false, "vline_reservation": false, "ticket_zones": [1]}, "stop_id": 2285, "stop_name": "Beaconsfield Pde/Victoria Ave #32", "stop_landmark": ""},
{"disruption_ids": [], "stop_suburb": "Coburg", "route_type": 1, "stop_latitude": -37.74286, "stop_longitude": 144.978134, "stop_sequence": 0, "stop_ticket": {"ticket_type": "", "zone": "Zone 1", "is_free_fare_zone": false, "ticket_machine": false, "ticket_checks": false, "vline_reservation": false, "ticket_zones": [1]}, "stop_id": 2044, "stop_name": "Bell St/Nicholson St #135", "stop_landmark": ""},
{"disruption_ids": [], "stop_suburb": "Brunswick East", "route_type": 1, "stop_latitude": -37.7666626, "stop_longitude": 144.9725, "stop_sequence": 0, "stop_ticket": {"ticket_type": "", "zone": "Zone 1", "is_free_fare_zone": false, "ticket_machine": false, "ticket_checks": false, "vline_reservation": false, "ticket_zones": [1]}, "stop_id": 2229, "stop_name": "Blyth St/Lygon St #125", "stop_landmark": ""},
{"disruption_ids": [], "stop_suburb": "Melbourne City", "route_type": 1, "stop_latitude": -37.8132, "stop_longitude": 144.965591, "stop_sequence": 0, "stop_ticket": {"ticket_type": "", "zone": "Zone 1", "is_free_fare_zone": true, "ticket_machine": true, "ticket_checks": false, "vline_reservation": false, "ticket_zones": [1]}, "stop_id": 2206, "stop_name": "Bourke Street Mall/Swanston St #10", "stop_landmark": "Bourke Street Mall"},
{"disruption_ids": [], "stop_suburb": "Albert Park", "route_type": 1, "stop_latitude": -37.84042, "stop_longitude": 144.955719, "stop_sequence": 0, "stop_ticket": {"ticket_type": "", "zone": "Zone 1", "is_free_fare_zone": false, "ticket_machine": false, "ticket_checks": false, "vline_reservation": false, "ticket_zones": [1]}, "stop_id": 2278, "stop_name": "Bridport St/Montague St #28", "stop_landmark": ""},
{"disruption_ids": [], "stop_suburb": "Albert Park", "route_type": 1, "stop_latitude": -37.8415642, "stop_longitude": 144.953339, "stop_sequence": 0, "stop_ticket": {"ticket_type": "", "zone": "Zone 1", "is_free_fare_zone": false, "ticket_machine": false, "ticket_checks": false, "vline_reservation": false, "ticket_zones": [1]}, "stop_id": 2280, "stop_name": "Bridport St/Victoria Ave #29", "stop_landmark": ""},
{"disruption_ids": [], "stop_suburb": "Brunswick", "route_type": 1, "stop_latitude": -37.7784538, "stop_longitude": 144.970627, "stop_sequence": 0, "stop_ticket": {"ticket_type": "", "zone": "Zone 1", "is_free_fare_zone": false, "ticket_machine": false, "ticket_checks": false, "vline_reservation": false, "ticket_zones": [1]}, "stop_id": 2224, "stop_name": "Brunswick Rd/Lygon St #120", "stop_landmark": ""},
{"disruption_ids": [], "stop_suburb": "South Melbourne", "route_type": 1, "stop_latitude": -37.83595, "stop_longitude": 144.958908, "stop_sequence": 0, "stop_ticket": {"ticket_type": "", "zone": "Zone 1", "is_free_fare_zone": false, "ticket_machine": false, "ticket_checks": false, "vline_reservation": false, "ticket_zones": [1]}, "stop_id": 2274, "stop_name": "Cecil St/Park St #25", "stop_landmark": ""},
{"disruption_ids": [], "stop_suburb": "Melbourne City", "route_type": 1, "stop_latitude": -37.8163757, "stop_longitude": 144.967026, "stop_sequence": 0, "stop_ticket": {"ticket_type": "", "zone": "Zone 1", "is_free_fare_zone": true, "ticket_machine": true, "ticket_checks": false, "vline_reservation": false, "ticket_zones": [1]}, "stop_id": 2205, "stop_name": "City Square/Swanston St #11", "stop_landmark": "City Square"},
{"disruption_ids": [], "stop_suburb": "South Melbourne", "route_type": 1, "stop_latitude": -37.8352051, "stop_longitude": 144.9613, "stop_sequence": 0, "stop_ticket": {"ticket_type": "", "zone": "Zone 1", "is_free_fare_zone": false, "ticket_machine": false, "ticket_checks": false, "vline_reservation": false, "ticket_zones": [1]}, "stop_id": 2273, "stop_name": "Clarendon St/Park St #24", "stop_landmark": ""},
{"disruption_ids": [], "stop_suburb": "Coburg", "route_type": 1, "stop_latitude": -37.74942, "stop_longitude": 144.976837, "stop_sequence": 0, "stop_ticket": {"ticket_type": "", "zone": "Zone 1", "is_free_fare_zone": false, "ticket_machine": false, "ticket_checks": false, "vline_reservation": false, "ticket_zones": [1]}, "stop_id": 2262, "stop_name": "Crozier St/Nicholson St #132", "stop_landmark": ""},
{"disruption_ids": [], "stop_suburb": "South Melbourne", "route_type": 1, "stop_latitude": -37.8322258, "stop_longitude": 144.964966, "stop_sequence": 0, "stop_ticket": {"ticket_type": "", "zone": "Zone 1", "is_free_fare_zone": false, "ticket_machine": false, "ticket_checks": false, "vline_reservation": false, "ticket_zones": [1]}, "stop_id": 2271, "stop_name": "Dorcas St/Eastern Rd #22", "stop_landmark": ""},
{"disruption_ids": [], "stop_suburb": "Melbourne City", "route_type": 1, "stop_latitude": -37.8184738, "stop_longitude": 144.967987, "stop_sequence": 0, "stop_ticket": {"ticket_type": "", "zone": "Zone 1", "is_free_fare_zone": true, "ticket_machine": true, "ticket_checks": false, "vline_reservation": false, "ticket_zones": [1]}, "stop_id": 2204, "stop_name": "Federation Square/Swanston St #13", "stop_landmark": "Federation Square"},
{"disruption_ids": [], "stop_suburb": "Carlton North", "route_type": 1, "stop_latitude": -37.78737, "stop_longitude": 144.969177, "stop_sequence": 0, "stop_ticket": {"ticket_type": "", "zone": "Zone 1", "is_free_fare_zone": false, "ticket_machine": false, "ticket_checks": false, "vline_reservation": false, "ticket_zones": [1]}, "stop_id": 2220, "stop_name": "Fenwick St/Lygon St #116", "stop_landmark": ""},
{"disruption_ids": [], "stop_suburb": "South Melbourne", "route_type": 1, "stop_latitude": -37.83663, "stop_longitude": 144.9564, "stop_sequence": 0, "stop_ticket": {"ticket_type": "", "zone": "Zone 1", "is_free_fare_zone": false, "ticket_machine": false, "ticket_checks": false, "vline_reservation": false, "ticket_zones": [1]}, "stop_id": 2275, "stop_name": "Ferrars St/Park St #26", "stop_landmark": ""},
{"disruption_ids": [], "stop_suburb": "Brunswick East", "route_type": 1, "stop_latitude": -37.77274, "stop_longitude": 144.97142, "stop_sequence": 0, "stop_ticket": {"ticket_type": "", "zone": "Zone 1", "is_free_fare_zone": false, "ticket_machine": false, "ticket_checks": false, "vline_reservation": false, "ticket_zones": [1]}, "stop_id": 2226, "stop_name": "Glenlyon Rd/Lygon St #122", "stop_landmark": ""},
{"disruption_ids": [], "stop_suburb": "Albert Park", "route_type": 1, "stop_latitude": -37.84567, "stop_longitude": 144.949829, "stop_sequence": 0, "stop_ticket": {"ticket_type": "", "zone": "Zone 1", "is_free_fare_zone": false, "ticket_machine": false, "ticket_checks": false, "vline_reservation": false, "ticket_zones": [1]}, "stop_id": 2283, "stop_name": "Graham St/Victoria Ave #31", "stop_landmark": ""},
{"disruption_ids": [], "stop_suburb": "Southbank", "route_type": 1, "stop_latitude": -37.82578, "stop_longitude": 144.966629, "stop_sequence": 0, "stop_ticket": {"ticket_type": "", "zone": "Zone 1", "is_free_fare_zone": false, "ticket_machine": false, "ticket_checks": false, "vline_reservation": false, "ticket_zones": [1]}, "stop_id": 2268, "stop_name": "Grant St/Sturt St #18", "stop_landmark": ""},
{"disruption_ids": [], "stop_suburb": "Coburg", "route_type": 1, "stop_latitude": -37.74637, "stop_longitude": 144.97731, "stop_sequence": 0, "stop_ticket": {"ticket_type": "", "zone": "Zone 1", "is_free_fare_zone": false, "ticket_machine": false, "ticket_checks": false, "vline_reservation": false, "ticket_zones": [1]}, "stop_id": 2261, "stop_name": "Harding St/Nicholson St #133", "stop_landmark": ""},
{"disruption_ids": [], "stop_suburb": "Southbank", "route_type": 1, "stop_latitude": -37.8300934, "stop_longitude": 144.965332, "stop_sequence": 0, "stop_ticket": {"ticket_type": "", "zone": "Zone 1", "is_free_fare_zone": false, "ticket_machine": false, "ticket_checks": false, "vline_reservation": false, "ticket_zones": [1]}, "stop_id": 2270, "stop_name": "Kings Way/Sturt St #20", "stop_landmark": ""},
{"disruption_ids": [], "stop_suburb": "Carlton", "route_type": 1, "stop_latitude": -37.80237, "stop_longitude": 144.9637, "stop_sequence": 0, "stop_ticket": {"ticket_type": "", "zone": "Zone 1", "is_free_fare_zone": false, "ticket_machine": true, "ticket_checks": false, "vline_reservation": false, "ticket_zones": [1]}, "stop_id": 2212, "stop_name": "Lincoln Square/Swanston St #3", "stop_landmark": "Lincoln Square"},
{"disruption_ids": [], "stop_suburb": "Carlton", "route_type": 1, "stop_latitude": -37.7971077, "stop_longitude": 144.967163, "stop_sequence": 0, "stop_ticket": {"ticket_type": "", "zone": "Zone 1", "is_free_fare_zone": false, "ticket_machine": false, "ticket_checks": false, "vline_reservation": false, "ticket_zones": [1]}, "stop_id": 2216, "stop_name": "Lygon St/Elgin St #112", "stop_landmark": ""},
{"disruption_ids": [], "stop_suburb": "Carlton", "route_type": 1, "stop_latitude": -37.7941322, "stop_longitude": 144.968018, "stop_sequence": 0, "stop_ticket": {"ticket_type": "", "zone": "Zone 1", "is_free_fare_zone": false, "ticket_machine": false, "ticket_checks": false, "vline_reservation": false, "ticket_zones": [1]}, "stop_id": 2217, "stop_name": "Lytton St/Lygon St #113", "stop_landmark": ""},
{"disruption_ids": [], "stop_suburb": "Carlton North", "route_type": 1, "stop_latitude": -37.7895775, "stop_longitude": 144.9688, "stop_sequence": 0, "stop_ticket": {"ticket_type": "", "zone": "Zone 1", "is_free_fare_zone": false, "ticket_machine": false, "ticket_checks": false, "vline_reservation": false, "ticket_zones": [1]}, "stop_id": 2219, "stop_name": "Melbourne Cemetery/Lygon St #115", "stop_landmark": "Melbourne Cemetery"},
{"disruption_ids": [], "stop_suburb": "Melbourne City", "route_type": 1, "stop_latitude": -37.8103867, "stop_longitude": 144.964279, "stop_sequence": 0, "stop_ticket": {"ticket_type": "", "zone": "Zone 1", "is_free_fare_zone": true, "ticket_machine": true, "ticket_checks": false, "vline_reservation": false, "ticket_zones": [1]}, "stop_id": 2208, "stop_name": "Melbourne Central Station/Swanston St #8", "stop_landmark": "Melbourne Central Station"},
{"disruption_ids": [], "stop_suburb": "Carlton", "route_type": 1, "stop_latitude": -37.799305, "stop_longitude": 144.964188, "stop_sequence": 0, "stop_ticket": {"ticket_type": "", "zone": "Zone 1", "is_free_fare_zone": false, "ticket_machine": true, "ticket_checks": false, "vline_reservation": false, "ticket_zones": [1]}, "stop_id": 2214, "stop_name": "Melbourne University/Swanston St #1", "stop_landmark": "Melbourne University"},
{"disruption_ids": [], "stop_suburb": "Coburg", "route_type": 1, "stop_latitude": -37.74436, "stop_longitude": 144.977737, "stop_sequence": 0, "stop_ticket": {"ticket_type": "", "zone": "Zone 1", "is_free_fare_zone": false, "ticket_machine": false, "ticket_checks": false, "vline_reservation": false, "ticket_zones": [1]}, "stop_id": 2260, "stop_name": "Merribell Ave/Nicholson St #134", "stop_landmark": ""},
{"disruption_ids": [], "stop_suburb": "Southbank", "route_type": 1, "stop_latitude": -37.82843, "stop_longitude": 144.965759, "stop_sequence": 0, "stop_ticket": {"ticket_type": "", "zone": "Zone 1", "is_free_fare_zone": false, "ticket_machine": false, "ticket_checks": false, "vline_reservation": false, "ticket_zones": [1]}, "stop_id": 2269, "stop_name": "Miles St/Sturt St #19", "stop_landmark": ""},
{"disruption_ids": [], "stop_suburb": "Brunswick East", "route_type": 1, "stop_latitude": -37.759388, "stop_longitude": 144.974335, "stop_sequence": 0, "stop_ticket": {"ticket_type": "", "zone": "Zone 1", "is_free_fare_zone": false, "ticket_machine": false, "ticket_checks": false, "vline_reservation": false, "ticket_zones": [1]}, "stop_id": 2232, "stop_name": "Mitchell St/Holmes St #128", "stop_landmark": ""},
{"disruption_ids": [], "stop_suburb": "Albert Park", "route_type": 1, "stop_latitude": -37.84068, "stop_longitude": 144.955383, "stop_sequence": 0, "stop_ticket": {"ticket_type": "", "zone": "Zone 1", "is_free_fare_zone": false, "ticket_machine": false, "ticket_checks": false, "vline_reservation": false, "ticket_zones": [1]}, "stop_id": 2279, "stop_name": "Montague St/Bridport St #28", "stop_landmark": ""},
{"disruption_ids": [], "stop_suburb": "South Melbourne", "route_type": 1, "stop_latitude": -37.83733, "stop_longitude": 144.954453, "stop_sequence": 0, "stop_ticket": {"ticket_type": "", "zone": "Zone 1", "is_free_fare_zone": false, "ticket_machine": false, "ticket_checks": false, "vline_reservation": false, "ticket_zones": [1]}, "stop_id": 2276, "stop_name": "Montague St/Park St #27", "stop_landmark": ""},
{"disruption_ids": [], "stop_suburb": "South Melbourne", "route_type": 1, "stop_latitude": -37.83447, "stop_longitude": 144.963852, "stop_sequence": 0, "stop_ticket": {"ticket_type": "", "zone": "Zone 1", "is_free_fare_zone": false, "ticket_machine": false, "ticket_checks": false, "vline_reservation": false, "ticket_zones": [1]}, "stop_id": 2272, "stop_name": "Moray St/Park St #23", "stop_landmark": ""},
{"disruption_ids": [], "stop_suburb": "Brunswick", "route_type": 1, "stop_latitude": -37.7568779, "stop_longitude": 144.974762, "stop_sequence": 0, "stop_ticket": {"ticket_type": "", "zone": "Zone 1", "is_free_fare_zone": false, "ticket_machine": false, "ticket_checks": false, "vline_reservation": false, "ticket_zones": [1]}, "stop_id": 2233, "stop_name": "Moreland Rd/Holmes St #129", "stop_landmark": ""},
{"disruption_ids": [], "stop_suburb": "Coburg", "route_type": 1, "stop_latitude": -37.75654, "stop_longitude": 144.974976, "stop_sequence": 0, "stop_ticket": {"ticket_type": "", "zone": "Zone 1", "is_free_fare_zone": false, "ticket_machine": false, "ticket_checks": false, "vline_reservation": false, "ticket_zones": [1]}, "stop_id": 2265, "stop_name": "Moreland Rd/Nicholson St #129", "stop_landmark": ""},
{"disruption_ids": [], "stop_suburb": "South Melbourne", "route_type": 1, "stop_latitude": -37.83752, "stop_longitude": 144.954178, "stop_sequence": 0, "stop_ticket": {"ticket_type": "", "zone": "Zone 1", "is_free_fare_zone": false, "ticket_machine": false, "ticket_checks": false, "vline_reservation": false, "ticket_zones": [1]}, "stop_id": 2277, "stop_name": "Park St/Montague St #27", "stop_landmark": ""},
{"disruption_ids": [], "stop_suburb": "Carlton North", "route_type": 1, "stop_latitude": -37.7819252, "stop_longitude": 144.970078, "stop_sequence": 0, "stop_ticket": {"ticket_type": "", "zone": "Zone 1", "is_free_fare_zone": false, "ticket_machine": false, "ticket_checks": false, "vline_reservation": false, "ticket_zones": [1]}, "stop_id": 2222, "stop_name": "Pigdon St/Lygon St #118", "stop_landmark": ""},
{"disruption_ids": [], "stop_suburb": "Carlton North", "route_type": 1, "stop_latitude": -37.7926865, "stop_longitude": 144.968277, "stop_sequence": 0, "stop_ticket": {"ticket_type": "", "zone": "Zone 1", "is_free_fare_zone": false, "ticket_machine": false, "ticket_checks": false, "vline_reservation": false, "ticket_zones": [1]}, "stop_id": 2218, "stop_name": "Princes St/Lygon St #114", "stop_landmark": ""},
{"disruption_ids": [], "stop_suburb": "Carlton", "route_type": 1, "stop_latitude": -37.80569, "stop_longitude": 144.9631, "stop_sequence": 0, "stop_ticket": {"ticket_type": "", "zone": "Zone 1", "is_free_fare_zone": false, "ticket_machine": true, "ticket_checks": false, "vline_reservation": false, "ticket_zones": [1]}, "stop_id": 2211, "stop_name": "Queensberry St/Swanston St #4", "stop_landmark": ""},
{"disruption_ids": [], "stop_suburb": "Coburg", "route_type": 1, "stop_latitude": -37.75134, "stop_longitude": 144.976517, "stop_sequence": 0, "stop_ticket": {"ticket_type": "", "zone": "Zone 1", "is_free_fare_zone": false, "ticket_machine": false, "ticket_checks": false, "vline_reservation": false, "ticket_zones": [1]}, "stop_id": 2263, "stop_name": "Rennie St/Nicholson St #131", "stop_landmark": ""},
{"disruption_ids": [], "stop_suburb": "Carlton North", "route_type": 1, "stop_latitude": -37.7840347, "stop_longitude": 144.969727, "stop_sequence": 0, "stop_ticket": {"ticket_type": "", "zone": "Zone 1", "is_free_fare_zone": false, "ticket_machine": false, "ticket_checks": false, "vline_reservation": false, "ticket_zones": [1]}, "stop_id": 2221, "stop_name": "Richardson St/Lygon St #117", "stop_landmark": ""},
{"disruption_ids": [], "stop_suburb": "Albert Park", "route_type": 1, "stop_latitude": -37.84394, "stop_longitude": 144.951279, "stop_sequence": 0, "stop_ticket": {"ticket_type": "", "zone": "Zone 1", "is_free_fare_zone": false, "ticket_machine": false, "ticket_checks": false, "vline_reservation": false, "ticket_zones": [1]}, "stop_id": 2282, "stop_name": "Richardson St/Victoria Ave #30", "stop_landmark": ""},
{"disruption_ids": [], "stop_suburb": "Melbourne City", "route_type": 1, "stop_latitude": -37.80814, "stop_longitude": 144.963287, "stop_sequence": 0, "stop_ticket": {"ticket_type": "", "zone": "Zone 1", "is_free_fare_zone": false, "ticket_machine": true, "ticket_checks": false, "vline_reservation": false, "ticket_zones": [1]}, "stop_id": 2209, "stop_name": "RMIT University/Swanston St #7", "stop_landmark": "RMIT University"},
{"disruption_ids": [], "stop_suburb": "Brunswick East", "route_type": 1, "stop_latitude": -37.7644272, "stop_longitude": 144.9729, "stop_sequence": 0, "stop_ticket": {"ticket_type": "", "zone": "Zone 1", "is_free_fare_zone": false, "ticket_machine": false, "ticket_checks": false, "vline_reservation": false, "ticket_zones": [1]}, "stop_id": 2230, "stop_name": "Stewart St/Lygon St #126", "stop_landmark": ""},
{"disruption_ids": [], "stop_suburb": "Coburg", "route_type": 1, "stop_latitude": -37.75357, "stop_longitude": 144.975937, "stop_sequence": 0, "stop_ticket": {"ticket_type": "", "zone": "Zone 1", "is_free_fare_zone": false, "ticket_machine": false, "ticket_checks": false, "vline_reservation": false, "ticket_zones": [1]}, "stop_id": 2264, "stop_name": "The Avenue/Nicholson St #130", "stop_landmark": ""},
{"disruption_ids": [], "stop_suburb": "Brunswick East", "route_type": 1, "stop_latitude": -37.7682037, "stop_longitude": 144.972229, "stop_sequence": 0, "stop_ticket": {"ticket_type": "", "zone": "Zone 1", "is_free_fare_zone": false, "ticket_machine": false, "ticket_checks": false, "vline_reservation": false, "ticket_zones": [1]}, "stop_id": 2228, "stop_name": "Victoria St/Lygon St #124", "stop_landmark": ""},
{"disruption_ids": [], "stop_suburb": "Brunswick East", "route_type": 1, "stop_latitude": -37.77567, "stop_longitude": 144.970978, "stop_sequence": 0, "stop_ticket": {"ticket_type": "", "zone": "Zone 1", "is_free_fare_zone": false, "ticket_machine": false, "ticket_checks": false, "vline_reservation": false, "ticket_zones": [1]}, "stop_id": 2225, "stop_name": "Weston St/Lygon St #121", "stop_landmark": ""},
{"disruption_ids": [], "stop_suburb": "Southbank", "route_type": 1, "stop_latitude": -37.82329, "stop_longitude": 144.956055, "stop_sequence": 0, "stop_ticket": {"ticket_type": "", "zone": "Zone 1", "is_free_fare_zone": false, "ticket_machine": false, "ticket_checks": false, "vline_reservation": false, "ticket_zones": [1]}, "stop_id": 2500, "stop_name": "124A-Casino/MCEC/Clarendon St", "stop_landmark": "Casino/MCEC"},
{"disruption_ids": [], "stop_suburb": "South Melbourne", "route_type": 1, "stop_latitude": -37.82745, "stop_longitude": 144.953979, "stop_sequence": 0, "stop_ticket": {"ticket_type": "", "zone": "Zone 1", "is_free_fare_zone": false, "ticket_machine": false, "ticket_checks": false, "vline_reservation": false, "ticket_zones": [1]}, "stop_id": 2505, "stop_name": "125A-Southbank Tram Depot/Light Rail", "stop_landmark": "Southbank Tram Depot"},
{"disruption_ids": [], "stop_suburb": "East Melbourne", "route_type": 1, "stop_latitude": -37.80939, "stop_longitude": 144.975739, "stop_sequence": 0, "stop_ticket": {"ticket_type": "", "zone": "Zone 1", "is_free_fare_zone": false, "ticket_machine": false, "ticket_checks": false, "vline_reservation": false, "ticket_zones": [1]}, "stop_id": 2485, "stop_name": "Albert St/Gisborne St #11", "stop_landmark": ""},
{"disruption_ids": [], "stop_suburb": "Balwyn", "route_type": 1, "stop_latitude": -37.81224, "stop_longitude": 145.075928, "stop_sequence": 0, "stop_ticket": {"ticket_type": "", "zone": "Zone 1", "is_free_fare_zone": false, "ticket_machine": false, "ticket_checks": false, "vline_reservation": false, "ticket_zones": [1]}, "stop_id": 2425, "stop_name": "Balwyn Cinema/Whitehorse Rd #46", "stop_landmark": "Balwyn Cinema"},
{"disruption_ids": [], "stop_suburb": "Balwyn", "route_type": 1, "stop_latitude": -37.8129158, "stop_longitude": 145.081528, "stop_sequence": 0, "stop_ticket": {"ticket_type": "", "zone": "Zone 1,Zone 2", "is_free_fare_zone": false, "ticket_machine": false, "ticket_checks": false, "vline_reservation": false, "ticket_zones": [1, 2]}, "stop_id": 2424, "stop_name": "Balwyn Rd/Whitehorse Rd #47", "stop_landmark": ""},
{"disruption_ids": [], "stop_suburb": "Balwyn", "route_type": 1, "stop_latitude": -37.8131981, "stop_longitude": 145.083786, "stop_sequence": 0, "stop_ticket": {"ticket_type": "", "zone": "Zone 1,Zone 2", "is_free_fare_zone": false, "ticket_machine": false, "ticket_checks": false, "vline_reservation": false, "ticket_zones": [1, 2]}, "stop_id": 2422, "stop_name": "Balwyn Shopping Centre/Whitehorse Rd #48", "stop_landmark": "Balwyn Shopping Centre"},
{"disruption_ids": [], "stop_suburb": "Kew", "route_type": 1, "stop_latitude": -37.8129654, "stop_longitude": 145.023773, "stop_sequence": 0, "stop_ticket": {"ticket_type": "", "zone": "Zone 1", "is_free_fare_zone": false, "ticket_machine": false, "ticket_checks": false, "vline_reservation": false, "ticket_zones": [1]}, "stop_id": 2450, "stop_name": "Barkers Rd/High St #29", "stop_landmark": ""},
{"disruption_ids": [], "stop_suburb": "Melbourne City", "route_type": 1, "stop_latitude": -37.82155, "stop_longitude": 144.955261, "stop_sequence": 0, "stop_ticket": {"ticket_type": "", "zone": "Zone 1", "is_free_fare_zone": true, "ticket_machine": false, "ticket_checks": false, "vline_reservation": false, "ticket_zones": [1]}, "stop_id": 2499, "stop_name": "Batman Park/Spencer St #124", "stop_landmark": "Batman Park"},
{"disruption_ids": [], "stop_suburb": "Port Melbourne", "route_type": 1, "stop_latitude": -37.84079, "stop_longitude": 144.932816, "stop_sequence": 0, "stop_ticket": {"ticket_type": "", "zone": "Zone 1", "is_free_fare_zone": false, "ticket_machine": false, "ticket_checks": false, "vline_reservation": false, "ticket_zones": [1]}, "stop_id": 2510, "stop_name": "Beacon Cove/Light Rail #129", "stop_landmark": "Beacon Cove"},
{"disruption_ids": [], "stop_suburb": "Kew", "route_type": 1, "stop_latitude": -37.8081245, "stop_longitude": 145.042313, "stop_sequence": 0, "stop_ticket": {"ticket_type": "", "zone": "Zone 1", "is_free_fare_zone": false, "ticket_machine": false, "ticket_checks": false, "vline_reservation": false, "ticket_zones": [1]}, "stop_id": 2439, "stop_name": "Belmont Ave/Cotham Rd #37", "stop_landmark": ""},
{"disruption_ids": [], "stop_suburb": "Box Hill", "route_type": 1, "stop_latitude": -37.81788, "stop_longitude": 145.122345, "stop_sequence": 0, "stop_ticket": {"ticket_type": "", "zone": "Zone 1,Zone 2", "is_free_fare_zone": false, "ticket_machine": true, "ticket_checks": false, "vline_reservation": false, "ticket_zones": [1, 2]}, "stop_id": 2409, "stop_name": "Box Hill Central/Whitehorse Rd #58", "stop_landmark": "Box Hill Central"},
{"disruption_ids": [], "stop_suburb": "Kew", "route_type": 1, "stop_latitude": -37.81028, "stop_longitude": 145.060486, "stop_sequence": 0, "stop_ticket": {"ticket_type": "", "zone": "Zone 1", "is_free_fare_zone": false, "ticket_machine": false, "ticket_checks": false, "vline_reservation": false, "ticket_zones": [1]}, "stop_id": 2432, "stop_name": "Burke Rd/Cotham Rd #42", "stop_landmark": ""},
{"disruption_ids": [], "stop_suburb": "Balwyn", "route_type": 1, "stop_latitude": -37.81044, "stop_longitude": 145.060852, "stop_sequence": 0, "stop_ticket": {"ticket_type": "", "zone": "Zone 1", "is_free_fare_zone": false, "ticket_machine": false, "ticket_checks": false, "vline_reservation": false, "ticket_zones": [1]}, "stop_id": 2431, "stop_name": "Burke Rd/Whitehorse Rd #42", "stop_landmark": ""},
{"disruption_ids": [], "stop_suburb": "Richmond", "route_type": 1, "stop_latitude": -37.81144, "stop_longitude": 145.010391, "stop_sequence": 0, "stop_ticket": {"ticket_type": "", "zone": "Zone 1", "is_free_fare_zone": false, "ticket_machine": false, "ticket_checks": false, "vline_reservation": false, "ticket_zones": [1]}, "stop_id": 2461, "stop_name": "Burnley St/Victoria St #24", "stop_landmark": ""},
{"disruption_ids": [], "stop_suburb": "Kew", "route_type": 1, "stop_latitude": -37.807312, "stop_longitude": 145.035309, "stop_sequence": 0, "stop_ticket": {"ticket_type": "", "zone": "Zone 1", "is_free_fare_zone": false, "ticket_machine": false, "ticket_checks": false, "vline_reservation": false, "ticket_zones": [1]}, "stop_id": 2441, "stop_name": "Charles St/Cotham Rd #35", "stop_landmark": ""},
{"disruption_ids": [], "stop_suburb": "Richmond", "route_type": 1, "stop_latitude": -37.81065, "stop_longitude": 145.0008, "stop_sequence": 0, "stop_ticket": {"ticket_type": "", "zone": "Zone 1", "is_free_fare_zone": false, "ticket_machine": false, "ticket_checks": false, "vline_reservation": false, "ticket_zones": [1]}, "stop_id": 3352, "stop_name": "Church St/Victoria St #21", "stop_landmark": ""},
{"disruption_ids": [], "stop_suburb": "Abbotsford", "route_type": 1, "stop_latitude": -37.8104935, "stop_longitude": 145.000519, "stop_sequence": 0, "stop_ticket": {"ticket_type": "", "zone": "Zone 1", "is_free_fare_zone": false, "ticket_machine": false, "ticket_checks": false, "vline_reservation": false, "ticket_zones": [1]}, "stop_id": 2467, "stop_name": "Church St/Victoria St #21", "stop_landmark": ""},
{"disruption_ids": [], "stop_suburb": "Southbank", "route_type": 1, "stop_latitude": -37.82569, "stop_longitude": 144.95668, "stop_sequence": 0, "stop_ticket": {"ticket_type": "", "zone": "Zone 1", "is_free_fare_zone": false, "ticket_machine": false, "ticket_checks": false, "vline_reservation": false, "ticket_zones": [1]}, "stop_id": 2503, "stop_name": "Clarendon St/Whiteman St #125", "stop_landmark": ""},
{"disruption_ids": [], "stop_suburb": "Balwyn", "route_type": 1, "stop_latitude": -37.8113747, "stop_longitude": 145.068665, "stop_sequence": 0, "stop_ticket": {"ticket_type": "", "zone": "Zone 1", "is_free_fare_zone": false, "ticket_machine": false, "ticket_checks": false, "vline_reservation": false, "ticket_zones": [1]}, "stop_id": 2427, "stop_name": "Deepdene Park/Whitehorse Rd #44", "stop_landmark": "Deepdene Park"},
{"disruption_ids": [], "stop_suburb": "Balwyn", "route_type": 1, "stop_latitude": -37.81092, "stop_longitude": 145.06488, "stop_sequence": 0, "stop_ticket": {"ticket_type": "", "zone": "Zone 1", "is_free_fare_zone": false, "ticket_machine": false, "ticket_checks": false, "vline_reservation": false, "ticket_zones": [1]}, "stop_id": 2429, "stop_name": "Deepdene Shopping Centre/Whitehorse Rd #43", "stop_landmark": "Deepdene Shopping Centre"},
{"disruption_ids": [], "stop_suburb": "Box Hill", "route_type": 1, "stop_latitude": -37.81691, "stop_longitude": 145.1156, "stop_sequence": 0, "stop_ticket": {"ticket_type": "", "zone": "Zone 1,Zone 2", "is_free_fare_zone": false, "ticket_machine": false, "ticket_checks": false, "vline_reservation": false, "ticket_zones": [1, 2]}, "stop_id": 2411, "stop_name": "Elgar Rd/Whitehorse Rd #56", "stop_landmark": ""},
{"disruption_ids": [], "stop_suburb": "Melbourne City", "route_type": 1, "stop_latitude": -37.81642, "stop_longitude": 144.963409, "stop_sequence": 0, "stop_ticket": {"ticket_type": "", "zone": "Zone 1", "is_free_fare_zone": true, "ticket_machine": true, "ticket_checks": false, "vline_reservation": false, "ticket_zones": [1]}, "stop_id": 2492, "stop_name": "Elizabeth St/Collins St #5", "stop_landmark": ""},
{"disruption_ids": [], "stop_suburb": "Melbourne City", "route_type": 1, "stop_latitude": -37.8142166, "stop_longitude": 144.970718, "stop_sequence": 0, "stop_ticket": {"ticket_type": "", "zone": "Zone 1", "is_free_fare_zone": true, "ticket_machine": true, "ticket_checks": false, "vline_reservation": false, "ticket_zones": [1]}, "stop_id": 2174, "stop_name": "Exhibition St/Collins St #7", "stop_landmark": ""},
{"disruption_ids": [], "stop_suburb": "Kew", "route_type": 1, "stop_latitude": -37.8127136, "stop_longitude": 145.02063, "stop_sequence": 0, "stop_ticket": {"ticket_type": "", "zone": "Zone 1", "is_free_fare_zone": false, "ticket_machine": false, "ticket_checks": false, "vline_reservation": false, "ticket_zones": [1]}, "stop_id": 2454, "stop_name": "Findon Cres/Barkers Rd #27", "stop_landmark": ""},
{"disruption_ids": [], "stop_suburb": "Hawthorn", "route_type": 1, "stop_latitude": -37.8128777, "stop_longitude": 145.020767, "stop_sequence": 0, "stop_ticket": {"ticket_type": "", "zone": "Zone 1", "is_free_fare_zone": false, "ticket_machine": false, "ticket_checks": false, "vline_reservation": false, "ticket_zones": [1]}, "stop_id": 2473, "stop_name": "Findon St/Barkers Rd #27", "stop_landmark": ""},
{"disruption_ids": [], "stop_suburb": "Abbotsford", "route_type": 1, "stop_latitude": -37.81111, "stop_longitude": 145.006866, "stop_sequence": 0, "stop_ticket": {"ticket_type": "", "zone": "Zone 1", "is_free_fare_zone": false, "ticket_machine": false, "ticket_checks": false, "vline_reservation": false, "ticket_zones": [1]}, "stop_id": 2463, "stop_name": "Flockhart St/Victoria St #23", "stop_landmark": ""},
{"disruption_ids": [], "stop_suburb": "Kew", "route_type": 1, "stop_latitude": -37.80894, "stop_longitude": 145.049271, "stop_sequence": 0, "stop_ticket": {"ticket_type": "", "zone": "Zone 1", "is_free_fare_zone": false, "ticket_machine": false, "ticket_checks": false, "vline_reservation": false, "ticket_zones": [1]}, "stop_id": 2241, "stop_name": "Florence Ave/Cotham Rd #39", "stop_landmark": ""},
{"disruption_ids": [], "stop_suburb": "Kew", "route_type": 1, "stop_latitude": -37.80762, "stop_longitude": 145.037918, "stop_sequence": 0, "stop_ticket": {"ticket_type": "", "zone": "Zone 1", "is_free_fare_zone": false, "ticket_machine": false, "ticket_checks": false, "vline_reservation": false, "ticket_zones": [1]}, "stop_id": 2440, "stop_name": "Glenferrie Rd/Cotham Rd #36", "stop_landmark": ""},
{"disruption_ids": [], "stop_suburb": "Port Melbourne", "route_type": 1, "stop_latitude": -37.83705, "stop_longitude": 144.9372, "stop_sequence": 0, "stop_ticket": {"ticket_type": "", "zone": "Zone 1", "is_free_fare_zone": false, "ticket_machine": false, "ticket_checks": false, "vline_reservation": false, "ticket_zones": [1]}, "stop_id": 2509, "stop_name": "Graham St/Light Rail #128", "stop_landmark": ""},
{"disruption_ids": [], "stop_suburb": "Balwyn", "route_type": 1, "stop_latitude": -37.81175, "stop_longitude": 145.0718, "stop_sequence": 0, "stop_ticket": {"ticket_type": "", "zone": "Zone 1", "is_free_fare_zone": false, "ticket_machine": false, "ticket_checks": false, "vline_reservation": false, "ticket_zones": [1]}, "stop_id": 2426, "stop_name": "Hardwicke St/Whitehorse Rd #45", "stop_landmark": ""},
{"disruption_ids": [], "stop_suburb": "Kew", "route_type": 1, "stop_latitude": -37.8130264, "stop_longitude": 145.023178, "stop_sequence": 0, "stop_ticket": {"ticket_type": "", "zone": "Zone 1", "is_free_fare_zone": false, "ticket_machine": false, "ticket_checks": false, "vline_reservation": false, "ticket_zones": [1]}, "stop_id": 2451, "stop_name": "High St/Barkers Rd #29", "stop_landmark": ""},
{"disruption_ids": [], "stop_suburb": "Kew", "route_type": 1, "stop_latitude": -37.8069878, "stop_longitude": 145.0313, "stop_sequence": 0, "stop_ticket": {"ticket_type": "", "zone": "Zone 1", "is_free_fare_zone": false, "ticket_machine": false, "ticket_checks": false, "vline_reservation": false, "ticket_zones": [1]}, "stop_id": 2615, "stop_name": "High St/Cotham Rd #34", "stop_landmark": ""},
{"disruption_ids": [], "stop_suburb": "Collingwood", "route_type": 1, "stop_latitude": -37.8097229, "stop_longitude": 144.990646, "stop_sequence": 0, "stop_ticket": {"ticket_type": "", "zone": "Zone 1", "is_free_fare_zone": false, "ticket_machine": false, "ticket_checks": false, "vline_reservation": false, "ticket_zones": [1]}, "stop_id": 2471, "stop_name": "Hoddle St/Victoria Pde #18", "stop_landmark": ""},
{"disruption_ids": [], "stop_suburb": "Mont Albert", "route_type": 1, "stop_latitude": -37.8161659, "stop_longitude": 145.109467, "stop_sequence": 0, "stop_ticket": {"ticket_type": "", "zone": "Zone 1,Zone 2", "is_free_fare_zone": false, "ticket_machine": false, "ticket_checks": false, "vline_reservation": false, "ticket_zones": [1, 2]}, "stop_id": 2412, "stop_name": "Hood St/Whitehorse Rd #55", "stop_landmark": ""},
{"disruption_ids": [], "stop_suburb": "Mont Albert", "route_type": 1, "stop_latitude": -37.8154068, "stop_longitude": 145.103119, "stop_sequence": 0, "stop_ticket": {"ticket_type": "", "zone": "Zone 1,Zone 2", "is_free_fare_zone": false, "ticket_machine": false, "ticket_checks": false, "vline_reservation": false, "ticket_zones": [1, 2]}, "stop_id": 2413, "stop_name": "Inglisby Rd/Whitehorse Rd #54", "stop_landmark": ""},
{"disruption_ids": [], "stop_suburb": "Kew", "route_type": 1, "stop_latitude": -37.8075943, "stop_longitude": 145.02858, "stop_sequence": 0, "stop_ticket": {"ticket_type": "", "zone": "Zone 1", "is_free_fare_zone": false, "ticket_machine": false, "ticket_checks": false, "vline_reservation": false, "ticket_zones": [1]}, "stop_id": 2444, "stop_name": "Kew Junction/High St #32", "stop_landmark": "Kew Junction"},
{"disruption_ids": [], "stop_suburb": "Kew", "route_type": 1, "stop_latitude": -37.806675, "stop_longitude": 145.031311, "stop_sequence": 0, "stop_ticket": {"ticket_type": "", "zone": "Zone 1", "is_free_fare_zone": false, "ticket_machine": false, "ticket_checks": false, "vline_reservation": false, "ticket_zones": [1]}, "stop_id": 2445, "stop_name": "Kew Shopping Centre/High St #33", "stop_landmark": "Kew Shopping Centre"},
{"disruption_ids": [], "stop_suburb": "Kew", "route_type": 1, "stop_latitude": -37.80993, "stop_longitude": 145.057678, "stop_sequence": 0, "stop_ticket": {"ticket_type": "", "zone": "Zone 1", "is_free_fare_zone": false, "ticket_machine": false, "ticket_checks": false, "vline_reservation": false, "ticket_zones": [1]}, "stop_id": 2433, "stop_name": "Kew Traffic School/Cotham Rd #41", "stop_landmark": "Kew Traffic School"},
{"disruption_ids": [], "stop_suburb": "East Melbourne", "route_type": 1, "stop_latitude": -37.808548, "stop_longitude": 144.9788, "stop_sequence": 0, "stop_ticket": {"ticket_type": "", "zone": "Zone 1", "is_free_fare_zone": false, "ticket_machine": false, "ticket_checks": false, "vline_reservation": false, "ticket_zones": [1]}, "stop_id": 2481, "stop_name": "Lansdowne St/Victoria Pde #13", "stop_landmark": ""},
{"disruption_ids": [], "stop_suburb": "Fitzroy", "route_type": 1, "stop_latitude": -37.8084335, "stop_longitude": 144.978348, "stop_sequence": 0, "stop_ticket": {"ticket_type": "", "zone": "Zone 1", "is_free_fare_zone": false, "ticket_machine": false, "ticket_checks": false, "vline_reservation": false, "ticket_zones": [1]}, "stop_id": 2167, "stop_name": "Lansdowne St/Victoria Pde #13", "stop_landmark": ""},
{"disruption_ids": [], "stop_suburb": "Abbotsford", "route_type": 1, "stop_latitude": -37.8099937, "stop_longitude": 144.995758, "stop_sequence": 0, "stop_ticket": {"ticket_type": "", "zone": "Zone 1", "is_free_fare_zone": false, "ticket_machine": false, "ticket_checks": false, "vline_reservation": false, "ticket_zones": [1]}, "stop_id": 2469, "stop_name": "Lennox St/Victoria St #20", "stop_landmark": ""},
{"disruption_ids": [], "stop_suburb": "Richmond", "route_type": 1, "stop_latitude": -37.8101768, "stop_longitude": 144.9962, "stop_sequence": 0, "stop_ticket": {"ticket_type": "", "zone": "Zone 1", "is_free_fare_zone": false, "ticket_machine": false, "ticket_checks": false, "vline_reservation": false, "ticket_zones": [1]}, "stop_id": 2466, "stop_name": "Lennox St/Victoria St #20", "stop_landmark": ""},
{"disruption_ids": [], "stop_suburb": "Richmond", "route_type": 1, "stop_latitude": -37.8113136, "stop_longitude": 145.007614, "stop_sequence": 0, "stop_ticket": {"ticket_type": "", "zone": "Zone 1", "is_free_fare_zone": false, "ticket_machine": false, "ticket_checks": false, "vline_reservation": false, "ticket_zones": [1]}, "stop_id": 2462, "stop_name": "Leslie St/Victoria St #23", "stop_landmark": ""},
{"disruption_ids": [], "stop_suburb": "Kew", "route_type": 1, "stop_latitude": -37.8085327, "stop_longitude": 145.045837, "stop_sequence": 0, "stop_ticket": {"ticket_type": "", "zone": "Zone 1", "is_free_fare_zone": false, "ticket_machine": false, "ticket_checks": false, "vline_reservation": false, "ticket_zones": [1]}, "stop_id": 2438, "stop_name": "Marshall Ave/Cotham Rd #38", "stop_landmark": ""},
{"disruption_ids": [], "stop_suburb": "Richmond", "route_type": 1, "stop_latitude": -37.8108253, "stop_longitude": 145.004044, "stop_sequence": 0, "stop_ticket": {"ticket_type": "", "zone": "Zone 1", "is_free_fare_zone": false, "ticket_machine": false, "ticket_checks": false, "vline_reservation": false, "ticket_zones": [1]}, "stop_id": 2465, "stop_name": "McKay St/Victoria St #22", "stop_landmark": ""},
{"disruption_ids": [], "stop_suburb": "Melbourne City", "route_type": 1, "stop_latitude": -37.8156776, "stop_longitude": 144.965958, "stop_sequence": 0, "stop_ticket": {"ticket_type": "", "zone": "Zone 1", "is_free_fare_zone": true, "ticket_machine": true, "ticket_checks": false, "vline_reservation": false, "ticket_zones": [1]}, "stop_id": 2491, "stop_name": "Melbourne Town Hall/Collins St #6", "stop_landmark": "Melbourne Town Hall"},
{"disruption_ids": [], "stop_suburb": "South Melbourne", "route_type": 1, "stop_latitude": -37.83024, "stop_longitude": 144.948471, "stop_sequence": 0, "stop_ticket": {"ticket_type": "", "zone": "Zone 1", "is_free_fare_zone": false, "ticket_machine": false, "ticket_checks": false, "vline_reservation": false, "ticket_zones": [1]}, "stop_id": 2507, "stop_name": "Montague St/Light Rail #126", "stop_landmark": ""},
{"disruption_ids": [], "stop_suburb": "Balwyn", "route_type": 1, "stop_latitude": -37.8144035, "stop_longitude": 145.094788, "stop_sequence": 0, "stop_ticket": {"ticket_type": "", "zone": "Zone 1,Zone 2", "is_free_fare_zone": false, "ticket_machine": false, "ticket_checks": false, "vline_reservation": false, "ticket_zones": [1, 2]}, "stop_id": 2419, "stop_name": "Narrak Rd/Whitehorse Rd #51", "stop_landmark": ""},
{"disruption_ids": [], "stop_suburb": "Mont Albert", "route_type": 1, "stop_latitude": -37.8145638, "stop_longitude": 145.095169, "stop_sequence": 0, "stop_ticket": {"ticket_type": "", "zone": "Zone 1,Zone 2", "is_free_fare_zone": false, "ticket_machine": false, "ticket_checks": false, "vline_reservation": false, "ticket_zones": [1, 2]}, "stop_id": 2418, "stop_name": "Narrak Rd/Whitehorse Rd #51", "stop_landmark": ""},
{"disruption_ids": [], "stop_suburb": "Box Hill", "route_type": 1, "stop_latitude": -37.81746, "stop_longitude": 145.119873, "stop_sequence": 0, "stop_ticket": {"ticket_type": "", "zone": "Zone 1,Zone 2", "is_free_fare_zone": false, "ticket_machine": false, "ticket_checks": false, "vline_reservation": false, "ticket_zones": [1, 2]}, "stop_id": 2410, "stop_name": "Nelson Rd/Whitehorse Rd #57", "stop_landmark": ""},
{"disruption_ids": [], "stop_suburb": "Port Melbourne", "route_type": 1, "stop_latitude": -37.8332062, "stop_longitude": 144.9435, "stop_sequence": 0, "stop_ticket": {"ticket_type": "", "zone": "Zone 1", "is_free_fare_zone": false, "ticket_machine": false, "ticket_checks": false, "vline_reservation": false, "ticket_zones": [1]}, "stop_id": 2508, "stop_name": "North Port Station/Light Rail #127", "stop_landmark": "North Port Station"},
{"disruption_ids": [], "stop_suburb": "Abbotsford", "route_type": 1, "stop_latitude": -37.8096962, "stop_longitude": 144.992966, "stop_sequence": 0, "stop_ticket": {"ticket_type": "", "zone": "Zone 1", "is_free_fare_zone": false, "ticket_machine": false, "ticket_checks": false, "vline_reservation": false, "ticket_zones": [1]}, "stop_id": 2470, "stop_name": "North Richmond Railway Station/Victoria St #19", "stop_landmark": "North Richmond Railway Station"},
{"disruption_ids": [], "stop_suburb": "Richmond", "route_type": 1, "stop_latitude": -37.80978, "stop_longitude": 144.992554, "stop_sequence": 0, "stop_ticket": {"ticket_type": "", "zone": "Zone 1", "is_free_fare_zone": false, "ticket_machine": false, "ticket_checks": false, "vline_reservation": false, "ticket_zones": [1]}, "stop_id": 2468, "stop_name": "North Richmond Railway Station/Victoria St #19", "stop_landmark": "North Richmond Railway Station"},
{"disruption_ids": [], "stop_suburb": "Balwyn", "route_type": 1, "stop_latitude": -37.813694, "stop_longitude": 145.087952, "stop_sequence": 0, "stop_ticket": {"ticket_type": "", "zone": "Zone 1,Zone 2", "is_free_fare_zone": false, "ticket_machine": false, "ticket_checks": false, "vline_reservation": false, "ticket_zones": [1, 2]}, "stop_id": 2421, "stop_name": "Northcote Ave/Whitehorse Rd #49", "stop_landmark": ""},
{"disruption_ids": [], "stop_suburb": "East Melbourne", "route_type": 1, "stop_latitude": -37.81238, "stop_longitude": 144.974487, "stop_sequence": 0, "stop_ticket": {"ticket_type": "", "zone": "Zone 1", "is_free_fare_zone": false, "ticket_machine": false, "ticket_checks": false, "vline_reservation": false, "ticket_zones": [1]}, "stop_id": 2487, "stop_name": "Parliament Railway Station/Macarthur St #10", "stop_landmark": "Parliament Railway Station"},
{"disruption_ids": [], "stop_suburb": "Southbank", "route_type": 1, "stop_latitude": -37.8260765, "stop_longitude": 144.9562, "stop_sequence": 0, "stop_ticket": {"ticket_type": "", "zone": "Zone 1", "is_free_fare_zone": false, "ticket_machine": false, "ticket_checks": false, "vline_reservation": false, "ticket_zones": [1]}, "stop_id": 2504, "stop_name": "Port Junction/79 Whiteman St #125", "stop_landmark": "Port Junction"},
{"disruption_ids": [], "stop_suburb": "Kew", "route_type": 1, "stop_latitude": -37.8068924, "stop_longitude": 145.031647, "stop_sequence": 0, "stop_ticket": {"ticket_type": "", "zone": "Zone 1", "is_free_fare_zone": false, "ticket_machine": false, "ticket_checks": false, "vline_reservation": false, "ticket_zones": [1]}, "stop_id": 2442, "stop_name": "QPO/Cotham Rd #34", "stop_landmark": "QPO"},
{"disruption_ids": [], "stop_suburb": "Richmond", "route_type": 1, "stop_latitude": -37.81177, "stop_longitude": 145.013229, "stop_sequence": 0, "stop_ticket": {"ticket_type": "", "zone": "Zone 1", "is_free_fare_zone": false, "ticket_machine": false, "ticket_checks": false, "vline_reservation": false, "ticket_zones": [1]}, "stop_id": 2458, "stop_name": "River Bvd/Victoria St #25", "stop_landmark": ""},
{"disruption_ids": [], "stop_suburb": "East Melbourne", "route_type": 1, "stop_latitude": -37.8089256, "stop_longitude": 144.982224, "stop_sequence": 0, "stop_ticket": {"ticket_type": "", "zone": "Zone 1", "is_free_fare_zone": false, "ticket_machine": false, "ticket_checks": false, "vline_reservation": false, "ticket_zones": [1]}, "stop_id": 2477, "stop_name": "Smith St/Victoria Pde #15", "stop_landmark": ""},
{"disruption_ids": [], "stop_suburb": "Fitzroy", "route_type": 1, "stop_latitude": -37.80892, "stop_longitude": 144.98291, "stop_sequence": 0, "stop_ticket": {"ticket_type": "", "zone": "Zone 1", "is_free_fare_zone": false, "ticket_machine": false, "ticket_checks": false, "vline_reservation": false, "ticket_zones": [1]}, "stop_id": 2246, "stop_name": "Smith St/Victoria Pde #15", "stop_landmark": ""},
{"disruption_ids": [], "stop_suburb": "Melbourne City", "route_type": 1, "stop_latitude": -37.8188477, "stop_longitude": 144.955063, "stop_sequence": 0, "stop_ticket": {"ticket_type": "", "zone": "Zone 1", "is_free_fare_zone": true, "ticket_machine": false, "ticket_checks": false, "vline_reservation": false, "ticket_zones": [1]}, "stop_id": 2496, "stop_name": "Spencer St/Collins St #1", "stop_landmark": ""},
{"disruption_ids": [], "stop_suburb": "Melbourne City", "route_type": 1, "stop_latitude": -37.8135567, "stop_longitude": 144.973282, "stop_sequence": 0, "stop_ticket": {"ticket_type": "", "zone": "Zone 1", "is_free_fare_zone": true, "ticket_machine": true, "ticket_checks": false, "vline_reservation": false, "ticket_zones": [1]}, "stop_id": 2488, "stop_name": "Spring St/Collins St #8", "stop_landmark": ""},
{"disruption_ids": [], "stop_suburb": "Kew", "route_type": 1, "stop_latitude": -37.80938, "stop_longitude": 145.052917, "stop_sequence": 0, "stop_ticket": {"ticket_type": "", "zone": "Zone 1", "is_free_fare_zone": false, "ticket_machine": false, "ticket_checks": false, "vline_reservation": false, "ticket_zones": [1]}, "stop_id": 2435, "stop_name": "St George's Hospital/Cotham Rd #40", "stop_landmark": "St George's Hospital"},
{"disruption_ids": [], "stop_suburb": "East Melbourne", "route_type": 1, "stop_latitude": -37.8082771, "stop_longitude": 144.976135, "stop_sequence": 0, "stop_ticket": {"ticket_type": "", "zone": "Zone 1", "is_free_fare_zone": false, "ticket_machine": true, "ticket_checks": false, "vline_reservation": false, "ticket_zones": [1]}, "stop_id": 2483, "stop_name": "St Vincents Plaza/Victoria Pde #12", "stop_landmark": "St Vincents Plaza"},
{"disruption_ids": [], "stop_suburb": "Fitzroy", "route_type": 1, "stop_latitude": -37.80823, "stop_longitude": 144.976456, "stop_sequence": 0, "stop_ticket": {"ticket_type": "", "zone": "Zone 1", "is_free_fare_zone": false, "ticket_machine": true, "ticket_checks": false, "vline_reservation": false, "ticket_zones": [1]}, "stop_id": 2484, "stop_name": "St Vincents Plaza/Victoria Pde #12", "stop_landmark": "St Vincents Plaza"},
{"disruption_ids": [], "stop_suburb": "Kew", "route_type": 1, "stop_latitude": -37.81023, "stop_longitude": 145.026154, "stop_sequence": 0, "stop_ticket": {"ticket_type": "", "zone": "Zone 1", "is_free_fare_zone": false, "ticket_machine": false, "ticket_checks": false, "vline_reservation": false, "ticket_zones": [1]}, "stop_id": 2447, "stop_name": "Stevenson St/High St #31", "stop_landmark": ""},
{"disruption_ids": [], "stop_suburb": "Kew", "route_type": 1, "stop_latitude": -37.80912, "stop_longitude": 145.049744, "stop_sequence": 0, "stop_ticket": {"ticket_type": "", "zone": "Zone 1", "is_free_fare_zone": false, "ticket_machine": false, "ticket_checks": false, "vline_reservation": false, "ticket_zones": [1]}, "stop_id": 2437, "stop_name": "Thomas St/Cotham Rd #39", "stop_landmark": ""},
{"disruption_ids": [], "stop_suburb": "Balwyn", "route_type": 1, "stop_latitude": -37.8149452, "stop_longitude": 145.099243, "stop_sequence": 0, "stop_ticket": {"ticket_type": "", "zone": "Zone 1,Zone 2", "is_free_fare_zone": false, "ticket_machine": false, "ticket_checks": false, "vline_reservation": false, "ticket_zones": [1, 2]}, "stop_id": 2415, "stop_name": "Union Rd/Whitehorse Rd #53", "stop_landmark": ""},
{"disruption_ids": [], "stop_suburb": "Surrey Hills", "route_type": 1, "stop_latitude": -37.81511, "stop_longitude": 145.099518, "stop_sequence": 0, "stop_ticket": {"ticket_type": "", "zone": "Zone 1,Zone 2", "is_free_fare_zone": false, "ticket_machine": false, "ticket_checks": false, "vline_reservation": false, "ticket_zones": [1, 2]}, "stop_id": 2460, "stop_name": "Union Rd/Whitehorse Rd #53", "stop_landmark": ""},
{"disruption_ids": [], "stop_suburb": "East Melbourne", "route_type": 1, "stop_latitude": -37.80929, "stop_longitude": 144.985733, "stop_sequence": 0, "stop_ticket": {"ticket_type": "", "zone": "Zone 1", "is_free_fare_zone": false, "ticket_machine": false, "ticket_checks": false, "vline_reservation": false, "ticket_zones": [1]}, "stop_id": 2540, "stop_name": "Wellington St/Victoria Pde #16", "stop_landmark": ""},
{"disruption_ids": [], "stop_suburb": "Collingwood", "route_type": 1, "stop_latitude": -37.80927, "stop_longitude": 144.98613, "stop_sequence": 0, "stop_ticket": {"ticket_type": "", "zone": "Zone 1", "is_free_fare_zone": false, "ticket_machine": false, "ticket_checks": false, "vline_reservation": false, "ticket_zones": [1]}, "stop_id": 2475, "stop_name": "Wellington St/Victoria Pde #16", "stop_landmark": ""},
{"disruption_ids": [], "stop_suburb": "Surrey Hills", "route_type": 1, "stop_latitude": -37.814106, "stop_longitude": 145.091385, "stop_sequence": 0, "stop_ticket": {"ticket_type": "", "zone": "Zone 1,Zone 2", "is_free_fare_zone": false, "ticket_machine": false, "ticket_checks": false, "vline_reservation": false, "ticket_zones": [1, 2]}, "stop_id": 2420, "stop_name": "Wharton St/Whitehorse Rd #50", "stop_landmark": ""},
{"disruption_ids": [], "stop_suburb": "Melbourne City", "route_type": 1, "stop_latitude": -37.8176079, "stop_longitude": 144.959427, "stop_sequence": 0, "stop_ticket": {"ticket_type": "", "zone": "Zone 1", "is_free_fare_zone": true, "ticket_machine": false, "ticket_checks": false, "vline_reservation": false, "ticket_zones": [1]}, "stop_id": 2494, "stop_name": "William St/Collins St #3", "stop_landmark": ""},
{"disruption_ids": [], "stop_suburb": "Caulfield North", "route_type": 1, "stop_latitude": -37.8659, "stop_longitude": 145.0259, "stop_sequence": 0, "stop_ticket": {"ticket_type": "", "zone": "Zone 1", "is_free_fare_zone": false, "ticket_machine": false, "ticket_checks": false, "vline_reservation": false, "ticket_zones": [1]}, "stop_id": 2723, "stop_name": "48A-Dandenong Rd/Hawthorn Rd", "stop_landmark": ""},
{"disruption_ids": [], "stop_suburb": "St Kilda", "route_type": 1, "stop_latitude": -37.86205, "stop_longitude": 144.9734, "stop_sequence": 0, "stop_ticket": {"ticket_type": "", "zone": "Zone 1", "is_free_fare_zone": false, "ticket_machine": false, "ticket_checks": false, "vline_reservation": false, "ticket_zones": [1]}, "stop_id": 2887, "stop_name": "Acland St/Fitzroy St #135", "stop_landmark": ""},
{"disruption_ids": [], "stop_suburb": "St Kilda", "route_type": 1, "stop_latitude": -37.8652, "stop_longitude": 144.9735, "stop_sequence": 0, "stop_ticket": {"ticket_type": "", "zone": "Zone 1", "is_free_fare_zone": false, "ticket_machine": false, "ticket_checks": false, "vline_reservation": false, "ticket_zones": [1]}, "stop_id": 2889, "stop_name": "Alfred Square/The Esplanade #136", "stop_landmark": ""},
{"disruption_ids": [], "stop_suburb": "Caulfield North", "route_type": 1, "stop_latitude": -37.87034, "stop_longitude": 145.005585, "stop_sequence": 0, "stop_ticket": {"ticket_type": "", "zone": "Zone 1", "is_free_fare_zone": false, "ticket_machine": false, "ticket_checks": false, "vline_reservation": false, "ticket_zones": [1]}, "stop_id": 2775, "stop_name": "Allan Rd/Balaclava Rd #42", "stop_landmark": ""},
{"disruption_ids": [], "stop_suburb": "Caulfield North", "route_type": 1, "stop_latitude": -37.86769, "stop_longitude": 145.025757, "stop_sequence": 0, "stop_ticket": {"ticket_type": "", "zone": "Zone 1", "is_free_fare_zone": false, "ticket_machine": false, "ticket_checks": false, "vline_reservation": false, "ticket_zones": [1]}, "stop_id": 2725, "stop_name": "Arthur St/Hawthorn Rd #49", "stop_landmark": ""},
{"disruption_ids": [], "stop_suburb": "Melbourne City", "route_type": 1, "stop_latitude": -37.8388557, "stop_longitude": 144.976563, "stop_sequence": 0, "stop_ticket": {"ticket_type": "", "zone": "Zone 1", "is_free_fare_zone": false, "ticket_machine": false, "ticket_checks": false, "vline_reservation": false, "ticket_zones": [1]}, "stop_id": 2610, "stop_name": "Arthur St/St Kilda Rd #23", "stop_landmark": ""},
{"disruption_ids": [], "stop_suburb": "Southbank", "route_type": 1, "stop_latitude": -37.8218422, "stop_longitude": 144.969513, "stop_sequence": 0, "stop_ticket": {"ticket_type": "", "zone": "Zone 1", "is_free_fare_zone": false, "ticket_machine": true, "ticket_checks": false, "vline_reservation": false, "ticket_zones": [1]}, "stop_id": 2203, "stop_name": "Arts Precinct/St Kilda Rd #14", "stop_landmark": "Arts Precinct"},
{"disruption_ids": [], "stop_suburb": "Caulfield North", "route_type": 1, "stop_latitude": -37.87289, "stop_longitude": 145.0246, "stop_sequence": 0, "stop_ticket": {"ticket_type": "", "zone": "Zone 1", "is_free_fare_zone": false, "ticket_machine": false, "ticket_checks": false, "vline_reservation": false, "ticket_zones": [1]}, "stop_id": 2727, "stop_name": "Balaclava Rd/Hawthorn Rd #51", "stop_landmark": ""},
{"disruption_ids": [], "stop_suburb": "Balaclava", "route_type": 1, "stop_latitude": -37.8688049, "stop_longitude": 144.994232, "stop_sequence": 0, "stop_ticket": {"ticket_type": "", "zone": "Zone 1", "is_free_fare_zone": false, "ticket_machine": false, "ticket_checks": false, "vline_reservation": false, "ticket_zones": [1]}, "stop_id": 2736, "stop_name": "Balaclava Station/Carlisle St #38", "stop_landmark": "Balaclava Station"},
{"disruption_ids": [], "stop_suburb": "Hawthorn", "route_type": 1, "stop_latitude": -37.8148079, "stop_longitude": 145.036728, "stop_sequence": 0, "stop_ticket": {"ticket_type": "", "zone": "Zone 1", "is_free_fare_zone": false, "ticket_machine": false, "ticket_checks": false, "vline_reservation": false, "ticket_zones": [1]}, "stop_id": 2928, "stop_name": "Barkers Rd/Glenferrie Rd #77", "stop_landmark": ""},
{"disruption_ids": [], "stop_suburb": "St Kilda", "route_type": 1, "stop_latitude": -37.8670654, "stop_longitude": 144.9811, "stop_sequence": 0, "stop_ticket": {"ticket_type": "", "zone": "Zone 1", "is_free_fare_zone": false, "ticket_machine": false, "ticket_checks": false, "vline_reservation": false, "ticket_zones": [1]}, "stop_id": 2739, "stop_name": "Barkly St/Carlisle St #33", "stop_landmark": ""},
{"disruption_ids": [], "stop_suburb": "Melbourne City", "route_type": 1, "stop_latitude": -37.8478966, "stop_longitude": 144.979767, "stop_sequence": 0, "stop_ticket": {"ticket_type": "", "zone": "Zone 1", "is_free_fare_zone": false, "ticket_machine": false, "ticket_checks": false, "vline_reservation": false, "ticket_zones": [1]}, "stop_id": 2407, "stop_name": "Beatrice St/St Kilda Rd #26", "stop_landmark": ""},
{"disruption_ids": [], "stop_suburb": "Malvern", "route_type": 1, "stop_latitude": -37.8540764, "stop_longitude": 145.029587, "stop_sequence": 0, "stop_ticket": {"ticket_type": "", "zone": "Zone 1", "is_free_fare_zone": false, "ticket_machine": false, "ticket_checks": false, "vline_reservation": false, "ticket_zones": [1]}, "stop_id": 2901, "stop_name": "Bell St/Glenferrie Rd #58", "stop_landmark": ""},
{"disruption_ids": [], "stop_suburb": "Melbourne City", "route_type": 1, "stop_latitude": -37.8132, "stop_longitude": 144.965591, "stop_sequence": 0, "stop_ticket": {"ticket_type": "", "zone": "Zone 1", "is_free_fare_zone": true, "ticket_machine": true, "ticket_checks": false, "vline_reservation": false, "ticket_zones": [1]}, "stop_id": 2206, "stop_name": "Bourke Street Mall/Swanston St #10", "stop_landmark": "Bourke Street Mall"},
{"disruption_ids": [], "stop_suburb": "St Kilda", "route_type": 1, "stop_latitude": -37.8680763, "stop_longitude": 144.987671, "stop_sequence": 0, "stop_ticket": {"ticket_type": "", "zone": "Zone 1", "is_free_fare_zone": false, "ticket_machine": false, "ticket_checks": false, "vline_reservation": false, "ticket_zones": [1]}, "stop_id": 2311, "stop_name": "Brighton Rd/Carlisle St #35", "stop_landmark": ""},
{"disruption_ids": [], "stop_suburb": "Hawthorn", "route_type": 1, "stop_latitude": -37.8227119, "stop_longitude": 145.035263, "stop_sequence": 0, "stop_ticket": {"ticket_type": "", "zone": "Zone 1", "is_free_fare_zone": false, "ticket_machine": false, "ticket_checks": false, "vline_reservation": false, "ticket_zones": [1]}, "stop_id": 2922, "stop_name": "Burwood Rd/Glenferrie Rd #73", "stop_landmark": ""},
{"disruption_ids": [], "stop_suburb": "Hawthorn", "route_type": 1, "stop_latitude": -37.8334274, "stop_longitude": 145.03331, "stop_sequence": 0, "stop_ticket": {"ticket_type": "", "zone": "Zone 1", "is_free_fare_zone": false, "ticket_machine": false, "ticket_checks": false, "vline_reservation": false, "ticket_zones": [1]}, "stop_id": 2916, "stop_name": "Callantina Rd/Glenferrie Rd #68", "stop_landmark": ""},
{"disruption_ids": [], "stop_suburb": "St Kilda", "route_type": 1, "stop_latitude": -37.86018, "stop_longitude": 144.976776, "stop_sequence": 0, "stop_ticket": {"ticket_type": "", "zone": "Zone 1", "is_free_fare_zone": false, "ticket_machine": false, "ticket_checks": false, "vline_reservation": false, "ticket_zones": [1]}, "stop_id": 2884, "stop_name": "Canterbury Rd/Fitzroy St #133", "stop_landmark": ""},
{"disruption_ids": [], "stop_suburb": "St Kilda", "route_type": 1, "stop_latitude": -37.8692436, "stop_longitude": 144.996735, "stop_sequence": 0, "stop_ticket": {"ticket_type": "", "zone": "Zone 1", "is_free_fare_zone": false, "ticket_machine": false, "ticket_checks": false, "vline_reservation": false, "ticket_zones": [1]}, "stop_id": 2778, "stop_name": "Carlisle Ave/Carlisle St #39", "stop_landmark": ""},
{"disruption_ids": [], "stop_suburb": "Caulfield North", "route_type": 1, "stop_latitude": -37.872303, "stop_longitude": 145.021179, "stop_sequence": 0, "stop_ticket": {"ticket_type": "", "zone": "Zone 1", "is_free_fare_zone": false, "ticket_machine": false, "ticket_checks": false, "vline_reservation": false, "ticket_zones": [1]}, "stop_id": 2309, "stop_name": "Caulfield Junior College/Balaclava Rd #47", "stop_landmark": "Caulfield Junior College"},
{"disruption_ids": [], "stop_suburb": "St Kilda", "route_type": 1, "stop_latitude": -37.86845, "stop_longitude": 144.9905, "stop_sequence": 0, "stop_ticket": {"ticket_type": "", "zone": "Zone 1", "is_free_fare_zone": false, "ticket_machine": false, "ticket_checks": false, "vline_reservation": false, "ticket_zones": [1]}, "stop_id": 2974, "stop_name": "Chapel St/Carlisle St #37", "stop_landmark": ""},
{"disruption_ids": [], "stop_suburb": "Balaclava", "route_type": 1, "stop_latitude": -37.8682556, "stop_longitude": 144.990128, "stop_sequence": 0, "stop_ticket": {"ticket_type": "", "zone": "Zone 1", "is_free_fare_zone": false, "ticket_machine": false, "ticket_checks": false, "vline_reservation": false, "ticket_zones": [1]}, "stop_id": 2737, "stop_name": "Chapel St/Carlisle St #37", "stop_landmark": ""},
{"disruption_ids": [], "stop_suburb": "Hawthorn", "route_type": 1, "stop_latitude": -37.81888, "stop_longitude": 145.035965, "stop_sequence": 0, "stop_ticket": {"ticket_type": "", "zone": "Zone 1", "is_free_fare_zone": false, "ticket_machine": false, "ticket_checks": false, "vline_reservation": false, "ticket_zones": [1]}, "stop_id": 2925, "stop_name": "Chrystobel Cres/Glenferrie Rd #75", "stop_landmark": ""},
{"disruption_ids": [], "stop_suburb": "Melbourne City", "route_type": 1, "stop_latitude": -37.8163757, "stop_longitude": 144.967026, "stop_sequence": 0, "stop_ticket": {"ticket_type": "", "zone": "Zone 1", "is_free_fare_zone": true, "ticket_machine": true, "ticket_checks": false, "vline_reservation": false, "ticket_zones": [1]}, "stop_id": 2205, "stop_name": "City Square/Swanston St #11", "stop_landmark": "City Square"},
{"disruption_ids": [], "stop_suburb": "Melbourne City", "route_type": 1, "stop_latitude": -37.8440132, "stop_longitude": 144.978348, "stop_sequence": 0, "stop_ticket": {"ticket_type": "", "zone": "Zone 1", "is_free_fare_zone": false, "ticket_machine": true, "ticket_checks": false, "vline_reservation": false, "ticket_zones": [1]}, "stop_id": 2606, "stop_name": "Commercial Rd/St Kilda Rd #25", "stop_landmark": ""},
{"disruption_ids": [], "stop_suburb": "South Melbourne", "route_type": 1, "stop_latitude": -37.8445244, "stop_longitude": 144.978638, "stop_sequence": 0, "stop_ticket": {"ticket_type": "", "zone": "Zone 1", "is_free_fare_zone": false, "ticket_machine": true, "ticket_checks": false, "vline_reservation": false, "ticket_zones": [1]}, "stop_id": 2607, "stop_name": "Commercial Rd/St Kilda Rd #25", "stop_landmark": ""},
{"disruption_ids": [], "stop_suburb": "Kew", "route_type": 1, "stop_latitude": -37.80792, "stop_longitude": 145.038116, "stop_sequence": 0, "stop_ticket": {"ticket_type": "", "zone": "Zone 1", "is_free_fare_zone": false, "ticket_machine": false, "ticket_checks": false, "vline_reservation": false, "ticket_zones": [1]}, "stop_id": 2931, "stop_name": "Cotham Rd/Glenferrie Rd #80", "stop_landmark": ""},
{"disruption_ids": [], "stop_suburb": "Malvern", "route_type": 1, "stop_latitude": -37.8660545, "stop_longitude": 145.027817, "stop_sequence": 0, "stop_ticket": {"ticket_type": "", "zone": "Zone 1", "is_free_fare_zone": false, "ticket_machine": false, "ticket_checks": false, "vline_reservation": false, "ticket_zones": [1]}, "stop_id": 2891, "stop_name": "Dandenong Rd/Glenferrie Rd #48", "stop_landmark": ""},
{"disruption_ids": [], "stop_suburb": "Malvern", "route_type": 1, "stop_latitude": -37.8660545, "stop_longitude": 145.027817, "stop_sequence": 0, "stop_ticket": {"ticket_type": "", "zone": "Zone 1", "is_free_fare_zone": false, "ticket_machine": false, "ticket_checks": false, "vline_reservation": false, "ticket_zones": [1]}, "stop_id": 2892, "stop_name": "Dandenong Rd/Glenferrie Rd #52", "stop_landmark": ""},
{"disruption_ids": [], "stop_suburb": "Malvern", "route_type": 1, "stop_latitude": -37.86104, "stop_longitude": 145.028671, "stop_sequence": 0, "stop_ticket": {"ticket_type": "", "zone": "Zone 1", "is_free_fare_zone": false, "ticket_machine": false, "ticket_checks": false, "vline_reservation": false, "ticket_zones": [1]}, "stop_id": 2896, "stop_name": "Edsall St/Glenferrie Rd #55", "stop_landmark": ""},
{"disruption_ids": [], "stop_suburb": "Caulfield North", "route_type": 1, "stop_latitude": -37.8721428, "stop_longitude": 145.0211, "stop_sequence": 0, "stop_ticket": {"ticket_type": "", "zone": "Zone 1", "is_free_fare_zone": false, "ticket_machine": false, "ticket_checks": false, "vline_reservation": false, "ticket_zones": [1]}, "stop_id": 2247, "stop_name": "Elmhurst Rd/Balaclava Rd #47", "stop_landmark": ""},
{"disruption_ids": [], "stop_suburb": "St Kilda East", "route_type": 1, "stop_latitude": -37.8697, "stop_longitude": 145.001572, "stop_sequence": 0, "stop_ticket": {"ticket_type": "", "zone": "Zone 1", "is_free_fare_zone": false, "ticket_machine": false, "ticket_checks": false, "vline_reservation": false, "ticket_zones": [1]}, "stop_id": 2733, "stop_name": "Empress Rd/Balaclava Rd #41", "stop_landmark": ""},
{"disruption_ids": [], "stop_suburb": "Melbourne City", "route_type": 1, "stop_latitude": -37.8184738, "stop_longitude": 144.967987, "stop_sequence": 0, "stop_ticket": {"ticket_type": "", "zone": "Zone 1", "is_free_fare_zone": true, "ticket_machine": true, "ticket_checks": false, "vline_reservation": false, "ticket_zones": [1]}, "stop_id": 2204, "stop_name": "Federation Square/Swanston St #13", "stop_landmark": "Federation Square"},
{"disruption_ids": [], "stop_suburb": "Hawthorn", "route_type": 1, "stop_latitude": -37.8121147, "stop_longitude": 145.037216, "stop_sequence": 0, "stop_ticket": {"ticket_type": "", "zone": "Zone 1", "is_free_fare_zone": false, "ticket_machine": false, "ticket_checks": false, "vline_reservation": false, "ticket_zones": [1]}, "stop_id": 2929, "stop_name": "Fitzwilliam St/Glenferrie Rd #78", "stop_landmark": ""},
{"disruption_ids": [], "stop_suburb": "Hawthorn", "route_type": 1, "stop_latitude": -37.835556, "stop_longitude": 145.032944, "stop_sequence": 0, "stop_ticket": {"ticket_type": "", "zone": "Zone 1", "is_free_fare_zone": false, "ticket_machine": false, "ticket_checks": false, "vline_reservation": false, "ticket_zones": [1]}, "stop_id": 2915, "stop_name": "Gardiner Rd/Glenferrie Rd #67", "stop_landmark": ""},
{"disruption_ids": [], "stop_suburb": "Hawthorn", "route_type": 1, "stop_latitude": -37.8205338, "stop_longitude": 145.035675, "stop_sequence": 0, "stop_ticket": {"ticket_type": "", "zone": "Zone 1", "is_free_fare_zone": false, "ticket_machine": false, "ticket_checks": false, "vline_reservation": false, "ticket_zones": [1]}, "stop_id": 2923, "stop_name": "Glenferrie Railway Station/Glenferrie Rd #74", "stop_landmark": "Glenferrie Railway Station"},
{"disruption_ids": [], "stop_suburb": "Hawthorn", "route_type": 1, "stop_latitude": -37.8205338, "stop_longitude": 145.035675, "stop_sequence": 0, "stop_ticket": {"ticket_type": "", "zone": "Zone 1", "is_free_fare_zone": false, "ticket_machine": false, "ticket_checks": false, "vline_reservation": false, "ticket_zones": [1]}, "stop_id": 2924, "stop_name": "Glenferrie Station/Glenferrie Rd #74", "stop_landmark": "Glenferrie Station"},
{"disruption_ids": [], "stop_suburb": "Southbank", "route_type": 1, "stop_latitude": -37.8241653, "stop_longitude": 144.970474, "stop_sequence": 0, "stop_ticket": {"ticket_type": "", "zone": "Zone 1", "is_free_fare_zone": false, "ticket_machine": false, "ticket_checks": false, "vline_reservation": false, "ticket_zones": [1]}, "stop_id": 2200, "stop_name": "Grant St-Police Memorial/St Kilda Rd #17", "stop_landmark": "Grant St-Police Memorial"},
{"disruption_ids": [], "stop_suburb": "St Kilda", "route_type": 1, "stop_latitude": -37.8674774, "stop_longitude": 144.984009, "stop_sequence": 0, "stop_ticket": {"ticket_type": "", "zone": "Zone 1", "is_free_fare_zone": false, "ticket_machine": false, "ticket_checks": false, "vline_reservation": false, "ticket_zones": [1]}, "stop_id": 2740, "stop_name": "Greeves St/Carlisle St #34", "stop_landmark": ""},
{"disruption_ids": [], "stop_suburb": "St Kilda", "route_type": 1, "stop_latitude": -37.86704, "stop_longitude": 144.978577, "stop_sequence": 0, "stop_ticket": {"ticket_type": "", "zone": "Zone 1", "is_free_fare_zone": false, "ticket_machine": false, "ticket_checks": false, "vline_reservation": false, "ticket_zones": [1]}, "stop_id": 2741, "stop_name": "Havelock St/Carlisle St #32", "stop_landmark": ""},
{"disruption_ids": [], "stop_suburb": "Caulfield North", "route_type": 1, "stop_latitude": -37.87279, "stop_longitude": 145.024948, "stop_sequence": 0, "stop_ticket": {"ticket_type": "", "zone": "Zone 1", "is_free_fare_zone": false, "ticket_machine": false, "ticket_checks": false, "vline_reservation": false, "ticket_zones": [1]}, "stop_id": 2308, "stop_name": "Hawthorn Rd/Balaclava Rd #51", "stop_landmark": ""},
{"disruption_ids": [], "stop_suburb": "Malvern", "route_type": 1, "stop_latitude": -37.8658371, "stop_longitude": 145.026443, "stop_sequence": 0, "stop_ticket": {"ticket_type": "", "zone": "Zone 1", "is_free_fare_zone": false, "ticket_machine": false, "ticket_checks": false, "vline_reservation": false, "ticket_zones": [1]}, "stop_id": 2998, "stop_name": "Hawthorn Rd/Dandenong Rd #48", "stop_landmark": ""},
{"disruption_ids": [], "stop_suburb": "Malvern", "route_type": 1, "stop_latitude": -37.8568268, "stop_longitude": 145.029175, "stop_sequence": 0, "stop_ticket": {"ticket_type": "", "zone": "Zone 1", "is_free_fare_zone": false, "ticket_machine": false, "ticket_checks": false, "vline_reservation": false, "ticket_zones": [1]}, "stop_id": 2900, "stop_name": "High St/Glenferrie Rd #57", "stop_landmark": ""},
{"disruption_ids": [], "stop_suburb": "South Melbourne", "route_type": 1, "stop_latitude": -37.84987, "stop_longitude": 144.98056, "stop_sequence": 0, "stop_ticket": {"ticket_type": "", "zone": "Zone 1", "is_free_fare_zone": false, "ticket_machine": true, "ticket_checks": false, "vline_reservation": false, "ticket_zones": [1]}, "stop_id": 2406, "stop_name": "High St/St Kilda Rd #27", "stop_landmark": ""},
{"disruption_ids": [], "stop_suburb": "St Kilda East", "route_type": 1, "stop_latitude": -37.86961, "stop_longitude": 144.999634, "stop_sequence": 0, "stop_ticket": {"ticket_type": "", "zone": "Zone 1", "is_free_fare_zone": false, "ticket_machine": false, "ticket_checks": false, "vline_reservation": false, "ticket_zones": [1]}, "stop_id": 2777, "stop_name": "Hotham St/Balaclava Rd #40", "stop_landmark": ""},
{"disruption_ids": [], "stop_suburb": "Balaclava", "route_type": 1, "stop_latitude": -37.86943, "stop_longitude": 144.9993, "stop_sequence": 0, "stop_ticket": {"ticket_type": "", "zone": "Zone 1", "is_free_fare_zone": false, "ticket_machine": false, "ticket_checks": false, "vline_reservation": false, "ticket_zones": [1]}, "stop_id": 2734, "stop_name": "Hotham St/Carlisle St #40", "stop_landmark": ""},
{"disruption_ids": [], "stop_suburb": "Caulfield North", "route_type": 1, "stop_latitude": -37.8696976, "stop_longitude": 145.025192, "stop_sequence": 0, "stop_ticket": {"ticket_type": "", "zone": "Zone 1", "is_free_fare_zone": false, "ticket_machine": false, "ticket_checks": false, "vline_reservation": false, "ticket_zones": [1]}, "stop_id": 2726, "stop_name": "Inkerman Rd/Hawthorn Rd #50", "stop_landmark": ""},
{"disruption_ids": [], "stop_suburb": "St Kilda", "route_type": 1, "stop_latitude": -37.86241, "stop_longitude": 144.973, "stop_sequence": 0, "stop_ticket": {"ticket_type": "", "zone": "Zone 1", "is_free_fare_zone": false, "ticket_machine": false, "ticket_checks": false, "vline_reservation": false, "ticket_zones": [1]}, "stop_id": 2888, "stop_name": "Jacka Bvd/Fitzroy St #135", "stop_landmark": ""},
{"disruption_ids": [], "stop_suburb": "Hawthorn", "route_type": 1, "stop_latitude": -37.8168526, "stop_longitude": 145.036316, "stop_sequence": 0, "stop_ticket": {"ticket_type": "", "zone": "Zone 1", "is_free_fare_zone": false, "ticket_machine": false, "ticket_checks": false, "vline_reservation": false, "ticket_zones": [1]}, "stop_id": 2927, "stop_name": "Johnson St/Glenferrie Rd #76", "stop_landmark": ""},
{"disruption_ids": [], "stop_suburb": "Caulfield North", "route_type": 1, "stop_latitude": -37.87156, "stop_longitude": 145.0151, "stop_sequence": 0, "stop_ticket": {"ticket_type": "", "zone": "Zone 1", "is_free_fare_zone": false, "ticket_machine": false, "ticket_checks": false, "vline_reservation": false, "ticket_zones": [1]}, "stop_id": 2773, "stop_name": "Kent Gr/Balaclava Rd #45", "stop_landmark": ""},
{"disruption_ids": [], "stop_suburb": "Kooyong", "route_type": 1, "stop_latitude": -37.8393364, "stop_longitude": 145.03244, "stop_sequence": 0, "stop_ticket": {"ticket_type": "", "zone": "Zone 1", "is_free_fare_zone": false, "ticket_machine": false, "ticket_checks": false, "vline_reservation": false, "ticket_zones": [1]}, "stop_id": 2911, "stop_name": "Kooyong Railway Station/Glenferrie Rd #65", "stop_landmark": "Kooyong Railway Station"},
{"disruption_ids": [], "stop_suburb": "Caulfield North", "route_type": 1, "stop_latitude": -37.871727, "stop_longitude": 145.017624, "stop_sequence": 0, "stop_ticket": {"ticket_type": "", "zone": "Zone 1", "is_free_fare_zone": false, "ticket_machine": false, "ticket_checks": false, "vline_reservation": false, "ticket_zones": [1]}, "stop_id": 2728, "stop_name": "Kooyong Rd/Balaclava Rd #46", "stop_landmark": ""},
{"disruption_ids": [], "stop_suburb": "Toorak", "route_type": 1, "stop_latitude": -37.8384933, "stop_longitude": 145.032349, "stop_sequence": 0, "stop_ticket": {"ticket_type": "", "zone": "Zone 1", "is_free_fare_zone": false, "ticket_machine": false, "ticket_checks": false, "vline_reservation": false, "ticket_zones": [1]}, "stop_id": 2914, "stop_name": "Kooyong Tennis Centre/Glenferrie Rd #66", "stop_landmark": "Kooyong Tennis Centre"},
{"disruption_ids": [], "stop_suburb": "South Melbourne", "route_type": 1, "stop_latitude": -37.841156, "stop_longitude": 144.9774, "stop_sequence": 0, "stop_ticket": {"ticket_type": "", "zone": "Zone 1", "is_free_fare_zone": false, "ticket_machine": false, "ticket_checks": false, "vline_reservation": false, "ticket_zones": [1]}, "stop_id": 2609, "stop_name": "Leopold St/St Kilda Rd #24", "stop_landmark": ""},
{"disruption_ids": [], "stop_suburb": "Melbourne City", "route_type": 1, "stop_latitude": -37.84148, "stop_longitude": 144.977417, "stop_sequence": 0, "stop_ticket": {"ticket_type": "", "zone": "Zone 1", "is_free_fare_zone": false, "ticket_machine": false, "ticket_checks": false, "vline_reservation": false, "ticket_zones": [1]}, "stop_id": 2608, "stop_name": "Leopold St/St Kilda Rd #24", "stop_landmark": ""},
{"disruption_ids": [], "stop_suburb": "Hawthorn", "route_type": 1, "stop_latitude": -37.8186073, "stop_longitude": 145.036224, "stop_sequence": 0, "stop_ticket": {"ticket_type": "", "zone": "Zone 1", "is_free_fare_zone": false, "ticket_machine": false, "ticket_checks": false, "vline_reservation": false, "ticket_zones": [1]}, "stop_id": 2926, "stop_name": "Liddiard St/Glenferrie Rd #75", "stop_landmark": ""},
{"disruption_ids": [], "stop_suburb": "Carlton", "route_type": 1, "stop_latitude": -37.80237, "stop_longitude": 144.9637, "stop_sequence": 0, "stop_ticket": {"ticket_type": "", "zone": "Zone 1", "is_free_fare_zone": false, "ticket_machine": true, "ticket_checks": false, "vline_reservation": false, "ticket_zones": [1]}, "stop_id": 2212, "stop_name": "Lincoln Square/Swanston St #3", "stop_landmark": "Lincoln Square"},
{"disruption_ids": [], "stop_suburb": "Malvern", "route_type": 1, "stop_latitude": -37.86115, "stop_longitude": 145.028458, "stop_sequence": 0, "stop_ticket": {"ticket_type": "", "zone": "Zone 1", "is_free_fare_zone": false, "ticket_machine": false, "ticket_checks": false, "vline_reservation": false, "ticket_zones": [1]}, "stop_id": 2897, "stop_name": "Llaneast St/Glenferrie Rd #55", "stop_landmark": ""},
{"disruption_ids": [], "stop_suburb": "Melbourne City", "route_type": 1, "stop_latitude": -37.8499146, "stop_longitude": 144.980545, "stop_sequence": 0, "stop_ticket": {"ticket_type": "", "zone": "Zone 1", "is_free_fare_zone": false, "ticket_machine": true, "ticket_checks": false, "vline_reservation": false, "ticket_zones": [1]}, "stop_id": 2405, "stop_name": "Lorne St/St Kilda Rd #27", "stop_landmark": ""},
{"disruption_ids": [], "stop_suburb": "Caulfield North", "route_type": 1, "stop_latitude": -37.87134, "stop_longitude": 145.01474, "stop_sequence": 0, "stop_ticket": {"ticket_type": "", "zone": "Zone 1", "is_free_fare_zone": false, "ticket_machine": false, "ticket_checks": false, "vline_reservation": false, "ticket_zones": [1]}, "stop_id": 2729, "stop_name": "Lumeah Rd/Balaclava Rd #45", "stop_landmark": ""},
{"disruption_ids": [], "stop_suburb": "St Kilda", "route_type": 1, "stop_latitude": -37.86698, "stop_longitude": 144.976837, "stop_sequence": 0, "stop_ticket": {"ticket_type": "", "zone": "Zone 1", "is_free_fare_zone": false, "ticket_machine": false, "ticket_checks": false, "vline_reservation": false, "ticket_zones": [1]}, "stop_id": 2968, "stop_name": "Luna Park/The Esplanade #138", "stop_landmark": "Luna Park"},
{"disruption_ids": [], "stop_suburb": "Malvern", "route_type": 1, "stop_latitude": -37.86527, "stop_longitude": 145.027771, "stop_sequence": 0, "stop_ticket": {"ticket_type": "", "zone": "Zone 1", "is_free_fare_zone": false, "ticket_machine": false, "ticket_checks": false, "vline_reservation": false, "ticket_zones": [1]}, "stop_id": 2893, "stop_name": "Malvern Railway Station/Glenferrie Rd #53", "stop_landmark": "Malvern Railway Station"},
{"disruption_ids": [], "stop_suburb": "Malvern", "route_type": 1, "stop_latitude": -37.8518333, "stop_longitude": 145.029938, "stop_sequence": 0, "stop_ticket": {"ticket_type": "", "zone": "Zone 1", "is_free_fare_zone": false, "ticket_machine": false, "ticket_checks": false, "vline_reservation": false, "ticket_zones": [1]}, "stop_id": 2903, "stop_name": "Malvern Rd/Glenferrie Rd #59", "stop_landmark": ""},
{"disruption_ids": [], "stop_suburb": "Malvern", "route_type": 1, "stop_latitude": -37.859005, "stop_longitude": 145.028824, "stop_sequence": 0, "stop_ticket": {"ticket_type": "", "zone": "Zone 1", "is_free_fare_zone": false, "ticket_machine": false, "ticket_checks": false, "vline_reservation": false, "ticket_zones": [1]}, "stop_id": 2446, "stop_name": "Malvern Tram Depot/Glenferrie Rd #56", "stop_landmark": "Malvern Tram Depot"},
{"disruption_ids": [], "stop_suburb": "Hawthorn", "route_type": 1, "stop_latitude": -37.8241539, "stop_longitude": 145.034973, "stop_sequence": 0, "stop_ticket": {"ticket_type": "", "zone": "Zone 1", "is_free_fare_zone": false, "ticket_machine": false, "ticket_checks": false, "vline_reservation": false, "ticket_zones": [1]}, "stop_id": 2920, "stop_name": "Manningtree Rd/Glenferrie Rd #72", "stop_landmark": ""},
{"disruption_ids": [], "stop_suburb": "Malvern", "route_type": 1, "stop_latitude": -37.8457375, "stop_longitude": 145.0311, "stop_sequence": 0, "stop_ticket": {"ticket_type": "", "zone": "Zone 1", "is_free_fare_zone": false, "ticket_machine": false, "ticket_checks": false, "vline_reservation": false, "ticket_zones": [1]}, "stop_id": 2907, "stop_name": "Mayfield Ave/Glenferrie Rd #62", "stop_landmark": ""},
{"disruption_ids": [], "stop_suburb": "Melbourne City", "route_type": 1, "stop_latitude": -37.8103867, "stop_longitude": 144.964279, "stop_sequence": 0, "stop_ticket": {"ticket_type": "", "zone": "Zone 1", "is_free_fare_zone": true, "ticket_machine": true, "ticket_checks": false, "vline_reservation": false, "ticket_zones": [1]}, "stop_id": 2208, "stop_name": "Melbourne Central Station/Swanston St #8", "stop_landmark": "Melbourne Central Station"},
{"disruption_ids": [], "stop_suburb": "Carlton", "route_type": 1, "stop_latitude": -37.799305, "stop_longitude": 144.964188, "stop_sequence": 0, "stop_ticket": {"ticket_type": "", "zone": "Zone 1", "is_free_fare_zone": false, "ticket_machine": true, "ticket_checks": false, "vline_reservation": false, "ticket_zones": [1]}, "stop_id": 2214, "stop_name": "Melbourne University/Swanston St #1", "stop_landmark": "Melbourne University"},
{"disruption_ids": [], "stop_suburb": "Kooyong", "route_type": 1, "stop_latitude": -37.8424721, "stop_longitude": 145.031662, "stop_sequence": 0, "stop_ticket": {"ticket_type": "", "zone": "Zone 1", "is_free_fare_zone": false, "ticket_machine": false, "ticket_checks": false, "vline_reservation": false, "ticket_zones": [1]}, "stop_id": 2910, "stop_name": "Mernda Rd/Glenferrie Rd #64", "stop_landmark": ""},
{"disruption_ids": [], "stop_suburb": "St Kilda", "route_type": 1, "stop_latitude": -37.86759, "stop_longitude": 144.983963, "stop_sequence": 0, "stop_ticket": {"ticket_type": "", "zone": "Zone 1", "is_free_fare_zone": false, "ticket_machine": false, "ticket_checks": false, "vline_reservation": false, "ticket_zones": [1]}, "stop_id": 2738, "stop_name": "Mitchell St/Carlisle St #34", "stop_landmark": ""},
{"disruption_ids": [], "stop_suburb": "Malvern", "route_type": 1, "stop_latitude": -37.8477058, "stop_longitude": 145.030731, "stop_sequence": 0, "stop_ticket": {"ticket_type": "", "zone": "Zone 1", "is_free_fare_zone": false, "ticket_machine": false, "ticket_checks": false, "vline_reservation": false, "ticket_zones": [1]}, "stop_id": 2906, "stop_name": "Moorakyne Ave/Glenferrie Rd #61", "stop_landmark": ""},
{"disruption_ids": [], "stop_suburb": "South Melbourne", "route_type": 1, "stop_latitude": -37.8475533, "stop_longitude": 144.979721, "stop_sequence": 0, "stop_ticket": {"ticket_type": "", "zone": "Zone 1", "is_free_fare_zone": false, "ticket_machine": false, "ticket_checks": false, "vline_reservation": false, "ticket_zones": [1]}, "stop_id": 2408, "stop_name": "Moubray St/St Kilda Rd #26", "stop_landmark": ""},
{"disruption_ids": [], "stop_suburb": "Caulfield North", "route_type": 1, "stop_latitude": -37.871067, "stop_longitude": 145.01236, "stop_sequence": 0, "stop_ticket": {"ticket_type": "", "zone": "Zone 1", "is_free_fare_zone": false, "ticket_machine": false, "ticket_checks": false, "vline_reservation": false, "ticket_zones": [1]}, "stop_id": 2730, "stop_name": "Ontario St/Balaclava Rd #44", "stop_landmark": ""},
{"disruption_ids": [], "stop_suburb": "Balaclava", "route_type": 1, "stop_latitude": -37.86907, "stop_longitude": 144.9965, "stop_sequence": 0, "stop_ticket": {"ticket_type": "", "zone": "Zone 1", "is_free_fare_zone": false, "ticket_machine": false, "ticket_checks": false, "vline_reservation": false, "ticket_zones": [1]}, "stop_id": 2735, "stop_name": "Orange Gr/Carlisle St #39", "stop_landmark": ""},
{"disruption_ids": [], "stop_suburb": "Caulfield North", "route_type": 1, "stop_latitude": -37.8705559, "stop_longitude": 145.008469, "stop_sequence": 0, "stop_ticket": {"ticket_type": "", "zone": "Zone 1", "is_free_fare_zone": false, "ticket_machine": false, "ticket_checks": false, "vline_reservation": false, "ticket_zones": [1]}, "stop_id": 2731, "stop_name": "Orrong Rd/Balaclava Rd #43", "stop_landmark": ""},
{"disruption_ids": [], "stop_suburb": "Caulfield North", "route_type": 1, "stop_latitude": -37.87118, "stop_longitude": 145.01239, "stop_sequence": 0, "stop_ticket": {"ticket_type": "", "zone": "Zone 1", "is_free_fare_zone": false, "ticket_machine": false, "ticket_checks": false, "vline_reservation": false, "ticket_zones": [1]}, "stop_id": 2774, "stop_name": "Otira Rd/Balaclava Rd #44", "stop_landmark": ""},
{"disruption_ids": [], "stop_suburb": "St Kilda", "route_type": 1, "stop_latitude": -37.8610878, "stop_longitude": 144.97525, "stop_sequence": 0, "stop_ticket": {"ticket_type": "", "zone": "Zone 1", "is_free_fare_zone": false, "ticket_machine": false, "ticket_checks": false, "vline_reservation": false, "ticket_zones": [1]}, "stop_id": 2886, "stop_name": "Park St/Fitzroy St #134", "stop_landmark": ""},
{"disruption_ids": [], "stop_suburb": "Melbourne City", "route_type": 1, "stop_latitude": -37.83152, "stop_longitude": 144.97139, "stop_sequence": 0, "stop_ticket": {"ticket_type": "", "zone": "Zone 1", "is_free_fare_zone": false, "ticket_machine": false, "ticket_checks": false, "vline_reservation": false, "ticket_zones": [1]}, "stop_id": 2256, "stop_name": "Park Street/St Kilda Rd #20", "stop_landmark": "Park Street"},
{"disruption_ids": [], "stop_suburb": "Kooyong", "route_type": 1, "stop_latitude": -37.84184, "stop_longitude": 145.031967, "stop_sequence": 0, "stop_ticket": {"ticket_type": "", "zone": "Zone 1", "is_free_fare_zone": false, "ticket_machine": false, "ticket_checks": false, "vline_reservation": false, "ticket_zones": [1]}, "stop_id": 2909, "stop_name": "Power St/Glenferrie Rd #64", "stop_landmark": ""},
{"disruption_ids": [], "stop_suburb": "St Kilda", "route_type": 1, "stop_latitude": -37.85793, "stop_longitude": 144.980576, "stop_sequence": 0, "stop_ticket": {"ticket_type": "", "zone": "Zone 1", "is_free_fare_zone": false, "ticket_machine": false, "ticket_checks": false, "vline_reservation": false, "ticket_zones": [1]}, "stop_id": 2126, "stop_name": "Princes St/Fitzroy St #132", "stop_landmark": ""},
{"disruption_ids": [], "stop_suburb": "Carlton", "route_type": 1, "stop_latitude": -37.80569, "stop_longitude": 144.9631, "stop_sequence": 0, "stop_ticket": {"ticket_type": "", "zone": "Zone 1", "is_free_fare_zone": false, "ticket_machine": true, "ticket_checks": false, "vline_reservation": false, "ticket_zones": [1]}, "stop_id": 2211, "stop_name": "Queensberry St/Swanston St #4", "stop_landmark": ""},
{"disruption_ids": [], "stop_suburb": "Hawthorn", "route_type": 1, "stop_latitude": -37.8289, "stop_longitude": 145.034088, "stop_sequence": 0, "stop_ticket": {"ticket_type": "", "zone": "Zone 1", "is_free_fare_zone": false, "ticket_machine": false, "ticket_checks": false, "vline_reservation": false, "ticket_zones": [1]}, "stop_id": 2918, "stop_name": "Riversdale Rd/Glenferrie Rd #70", "stop_landmark": ""},
{"disruption_ids": [], "stop_suburb": "Melbourne City", "route_type": 1, "stop_latitude": -37.80814, "stop_longitude": 144.963287, "stop_sequence": 0, "stop_ticket": {"ticket_type": "", "zone": "Zone 1", "is_free_fare_zone": false, "ticket_machine": true, "ticket_checks": false, "vline_reservation": false, "ticket_zones": [1]}, "stop_id": 2209, "stop_name": "RMIT University/Swanston St #7", "stop_landmark": "RMIT University"},
{"disruption_ids": [], "stop_suburb": "Melbourne City", "route_type": 1, "stop_latitude": -37.8288, "stop_longitude": 144.971375, "stop_sequence": 0, "stop_ticket": {"ticket_type": "", "zone": "Zone 1", "is_free_fare_zone": false, "ticket_machine": false, "ticket_checks": false, "vline_reservation": false, "ticket_zones": [1]}, "stop_id": 2198, "stop_name": "Shrine of Remembrance/St Kilda Rd #19", "stop_landmark": "Shrine of Remembrance"},
{"disruption_ids": [], "stop_suburb": "Caulfield North", "route_type": 1, "stop_latitude": -37.87017, "stop_longitude": 145.00531, "stop_sequence": 0, "stop_ticket": {"ticket_type": "", "zone": "Zone 1", "is_free_fare_zone": false, "ticket_machine": false, "ticket_checks": false, "vline_reservation": false, "ticket_zones": [1]}, "stop_id": 2732, "stop_name": "Sidwell Ave/Balaclava Rd #42", "stop_landmark": ""},
{"disruption_ids": [], "stop_suburb": "Malvern", "route_type": 1, "stop_latitude": -37.8541, "stop_longitude": 145.029785, "stop_sequence": 0, "stop_ticket": {"ticket_type": "", "zone": "Zone 1", "is_free_fare_zone": false, "ticket_machine": false, "ticket_checks": false, "vline_reservation": false, "ticket_zones": [1]}, "stop_id": 2902, "stop_name": "Sorrett Ave/Glenferrie Rd #58", "stop_landmark": ""},
{"disruption_ids": [], "stop_suburb": "Hawthorn", "route_type": 1, "stop_latitude": -37.8313828, "stop_longitude": 145.033661, "stop_sequence": 0, "stop_ticket": {"ticket_type": "", "zone": "Zone 1", "is_free_fare_zone": false, "ticket_machine": false, "ticket_checks": false, "vline_reservation": false, "ticket_zones": [1]}, "stop_id": 2917, "stop_name": "South St/Glenferrie Rd #69", "stop_landmark": ""},
{"disruption_ids": [], "stop_suburb": "St Kilda", "route_type": 1, "stop_latitude": -37.8553, "stop_longitude": 144.982529, "stop_sequence": 0, "stop_ticket": {"ticket_type": "", "zone": "Zone 1", "is_free_fare_zone": false, "ticket_machine": false, "ticket_checks": false, "vline_reservation": false, "ticket_zones": [1]}, "stop_id": 2401, "stop_name": "St Kilda Junction/St Kilda Rd #30", "stop_landmark": "St Kilda Junction"},
{"disruption_ids": [], "stop_suburb": "St Kilda", "route_type": 1, "stop_latitude": -37.8678322, "stop_longitude": 144.986572, "stop_sequence": 0, "stop_ticket": {"ticket_type": "", "zone": "Zone 1", "is_free_fare_zone": false, "ticket_machine": false, "ticket_checks": false, "vline_reservation": false, "ticket_zones": [1]}, "stop_id": 3345, "stop_name": "St Kilda Rd/Carlisle St #35", "stop_landmark": ""},
{"disruption_ids": [], "stop_suburb": "St Kilda", "route_type": 1, "stop_latitude": -37.8569679, "stop_longitude": 144.982208, "stop_sequence": 0, "stop_ticket": {"ticket_type": "", "zone": "Zone 1", "is_free_fare_zone": false, "ticket_machine": false, "ticket_checks": false, "vline_reservation": false, "ticket_zones": [1]}, "stop_id": 2113, "stop_name": "St Kilda Rd/Fitzroy St #131", "stop_landmark": ""},
{"disruption_ids": [], "stop_suburb": "St Kilda", "route_type": 1, "stop_latitude": -37.86809, "stop_longitude": 144.988678, "stop_sequence": 0, "stop_ticket": {"ticket_type": "", "zone": "Zone 1", "is_free_fare_zone": false, "ticket_machine": false, "ticket_checks": false, "vline_reservation": false, "ticket_zones": [1]}, "stop_id": 2310, "stop_name": "St Kilda Town Hall/Carlisle St #36", "stop_landmark": "St Kilda Town Hall"},
{"disruption_ids": [], "stop_suburb": "Malvern", "route_type": 1, "stop_latitude": -37.8496628, "stop_longitude": 145.030365, "stop_sequence": 0, "stop_ticket": {"ticket_type": "", "zone": "Zone 1", "is_free_fare_zone": false, "ticket_machine": false, "ticket_checks": false, "vline_reservation": false, "ticket_zones": [1]}, "stop_id": 2904, "stop_name": "Stonnington Pl/Glenferrie Rd #60", "stop_landmark": ""},
{"disruption_ids": [], "stop_suburb": "Malvern", "route_type": 1, "stop_latitude": -37.8439445, "stop_longitude": 145.031433, "stop_sequence": 0, "stop_ticket": {"ticket_type": "", "zone": "Zone 1", "is_free_fare_zone": false, "ticket_machine": false, "ticket_checks": false, "vline_reservation": false, "ticket_zones": [1]}, "stop_id": 2908, "stop_name": "Toorak Rd/Glenferrie Rd #63", "stop_landmark": ""},
{"disruption_ids": [], "stop_suburb": "Kooyong", "route_type": 1, "stop_latitude": -37.8436432, "stop_longitude": 145.031647, "stop_sequence": 0, "stop_ticket": {"ticket_type": "", "zone": "Zone 1", "is_free_fare_zone": false, "ticket_machine": false, "ticket_checks": false, "vline_reservation": false, "ticket_zones": [1]}, "stop_id": 2989, "stop_name": "Toorak Rd/Glenferrie Rd #63", "stop_landmark": ""},
{"disruption_ids": [], "stop_suburb": "Melbourne City", "route_type": 1, "stop_latitude": -37.835762, "stop_longitude": 144.975342, "stop_sequence": 0, "stop_ticket": {"ticket_type": "", "zone": "Zone 1", "is_free_fare_zone": false, "ticket_machine": false, "ticket_checks": false, "vline_reservation": false, "ticket_zones": [1]}, "stop_id": 2612, "stop_name": "Toorak Rd/St Kilda Rd #22", "stop_landmark": ""},
{"disruption_ids": [], "stop_suburb": "St Kilda", "route_type": 1, "stop_latitude": -37.853, "stop_longitude": 144.9817, "stop_sequence": 0, "stop_ticket": {"ticket_type": "", "zone": "Zone 1", "is_free_fare_zone": false, "ticket_machine": false, "ticket_checks": false, "vline_reservation": false, "ticket_zones": [1]}, "stop_id": 2403, "stop_name": "Union St/St Kilda Rd #29", "stop_landmark": ""},
{"disruption_ids": [], "stop_suburb": "Hawthorn", "route_type": 1, "stop_latitude": -37.82604, "stop_longitude": 145.0346, "stop_sequence": 0, "stop_ticket": {"ticket_type": "", "zone": "Zone 1", "is_free_fare_zone": false, "ticket_machine": false, "ticket_checks": false, "vline_reservation": false, "ticket_zones": [1]}, "stop_id": 2919, "stop_name": "Urquhart St/Glenferrie Rd #71", "stop_landmark": ""},
{"disruption_ids": [], "stop_suburb": "St Kilda East", "route_type": 1, "stop_latitude": -37.8699837, "stop_longitude": 145.002579, "stop_sequence": 0, "stop_ticket": {"ticket_type": "", "zone": "Zone 1", "is_free_fare_zone": false, "ticket_machine": false, "ticket_checks": false, "vline_reservation": false, "ticket_zones": [1]}, "stop_id": 2776, "stop_name": "Vadlure Ave/Balaclava Rd #41", "stop_landmark": ""},
{"disruption_ids": [], "stop_suburb": "Kooyong", "route_type": 1, "stop_latitude": -37.8383331, "stop_longitude": 145.032608, "stop_sequence": 0, "stop_ticket": {"ticket_type": "", "zone": "Zone 1", "is_free_fare_zone": false, "ticket_machine": false, "ticket_checks": false, "vline_reservation": false, "ticket_zones": [1]}, "stop_id": 2913, "stop_name": "Vision Australia/Glenferrie Rd #66", "stop_landmark": "Vision Australia"},
{"disruption_ids": [], "stop_suburb": "Caulfield North", "route_type": 1, "stop_latitude": -37.8679924, "stop_longitude": 145.025528, "stop_sequence": 0, "stop_ticket": {"ticket_type": "", "zone": "Zone 1", "is_free_fare_zone": false, "ticket_machine": false, "ticket_checks": false, "vline_reservation": false, "ticket_zones": [1]}, "stop_id": 2724, "stop_name": "Wanda Rd/Hawthorn Rd #49", "stop_landmark": ""},
{"disruption_ids": [], "stop_suburb": "Toorak", "route_type": 1, "stop_latitude": -37.84004, "stop_longitude": 145.03215, "stop_sequence": 0, "stop_ticket": {"ticket_type": "", "zone": "Zone 1", "is_free_fare_zone": false, "ticket_machine": false, "ticket_checks": false, "vline_reservation": false, "ticket_zones": [1]}, "stop_id": 2912, "stop_name": "Warra St/Glenferrie Rd #65", "stop_landmark": ""},
{"disruption_ids": [], "stop_suburb": "Malvern", "route_type": 1, "stop_latitude": -37.8624763, "stop_longitude": 145.028259, "stop_sequence": 0, "stop_ticket": {"ticket_type": "", "zone": "Zone 1", "is_free_fare_zone": false, "ticket_machine": false, "ticket_checks": false, "vline_reservation": false, "ticket_zones": [1]}, "stop_id": 2895, "stop_name": "Wattletree Rd/Glenferrie Rd #54", "stop_landmark": ""},
{"disruption_ids": [], "stop_suburb": "Hawthorn", "route_type": 1, "stop_latitude": -37.81009, "stop_longitude": 145.037628, "stop_sequence": 0, "stop_ticket": {"ticket_type": "", "zone": "Zone 1", "is_free_fare_zone": false, "ticket_machine": false, "ticket_checks": false, "vline_reservation": false, "ticket_zones": [1]}, "stop_id": 2930, "stop_name": "Wellington St/Glenferrie Rd #79", "stop_landmark": ""},
{"disruption_ids": [], "stop_suburb": "Brunswick", "route_type": 1, "stop_latitude": -37.7689476, "stop_longitude": 144.961716, "stop_sequence": 0, "stop_ticket": {"ticket_type": "", "zone": "Zone 1", "is_free_fare_zone": false, "ticket_machine": false, "ticket_checks": false, "vline_reservation": false, "ticket_zones": [1]}, "stop_id": 2808, "stop_name": "Albert St/Sydney Rd #22", "stop_landmark": ""},
{"disruption_ids": [], "stop_suburb": "Brunswick", "route_type": 1, "stop_latitude": -37.7609634, "stop_longitude": 144.963089, "stop_sequence": 0, "stop_ticket": {"ticket_type": "", "zone": "Zone 1", "is_free_fare_zone": false, "ticket_machine": false, "ticket_checks": false, "vline_reservation": false, "ticket_zones": [1]}, "stop_id": 2804, "stop_name": "Albion St/Sydney Rd #26", "stop_landmark": ""},
{"disruption_ids": [], "stop_suburb": "Brunswick", "route_type": 1, "stop_latitude": -37.7748375, "stop_longitude": 144.960739, "stop_sequence": 0, "stop_ticket": {"ticket_type": "", "zone": "Zone 1", "is_free_fare_zone": false, "ticket_machine": false, "ticket_checks": false, "vline_reservation": false, "ticket_zones": [1]}, "stop_id": 2400, "stop_name": "Barkly Square/115 Sydney Rd #20", "stop_landmark": "Barkly Square"},
{"disruption_ids": [], "stop_suburb": "Brunswick", "route_type": 1, "stop_latitude": -37.7746544, "stop_longitude": 144.960938, "stop_sequence": 0, "stop_ticket": {"ticket_type": "", "zone": "Zone 1", "is_free_fare_zone": false, "ticket_machine": false, "ticket_checks": false, "vline_reservation": false, "ticket_zones": [1]}, "stop_id": 2811, "stop_name": "Barkly Square/Sydney Rd #20", "stop_landmark": "Barkly Square"},
{"disruption_ids": [], "stop_suburb": "Coburg", "route_type": 1, "stop_latitude": -37.7414742, "stop_longitude": 144.966476, "stop_sequence": 0, "stop_ticket": {"ticket_type": "", "zone": "Zone 1", "is_free_fare_zone": false, "ticket_machine": false, "ticket_checks": false, "vline_reservation": false, "ticket_zones": [1]}, "stop_id": 2794, "stop_name": "Bell St/Sydney Rd #34", "stop_landmark": ""},
{"disruption_ids": [], "stop_suburb": "Brunswick", "route_type": 1, "stop_latitude": -37.7653542, "stop_longitude": 144.962509, "stop_sequence": 0, "stop_ticket": {"ticket_type": "", "zone": "Zone 1", "is_free_fare_zone": false, "ticket_machine": false, "ticket_checks": false, "vline_reservation": false, "ticket_zones": [1]}, "stop_id": 2133, "stop_name": "Blyth St/Sydney Rd #24", "stop_landmark": ""},
{"disruption_ids": [], "stop_suburb": "Melbourne City", "route_type": 1, "stop_latitude": -37.813446, "stop_longitude": 144.962769, "stop_sequence": 0, "stop_ticket": {"ticket_type": "", "zone": "Zone 1", "is_free_fare_zone": true, "ticket_machine": false, "ticket_checks": false, "vline_reservation": false, "ticket_zones": [1]}, "stop_id": 2720, "stop_name": "Bourke Street Mall/Elizabeth St #3", "stop_landmark": "Bourke Street Mall"},
{"disruption_ids": [], "stop_suburb": "Brunswick", "route_type": 1, "stop_latitude": -37.76558, "stop_longitude": 144.962311, "stop_sequence": 0, "stop_ticket": {"ticket_type": "", "zone": "Zone 1", "is_free_fare_zone": false, "ticket_machine": false, "ticket_checks": false, "vline_reservation": false, "ticket_zones": [1]}, "stop_id": 2806, "stop_name": "Brunswick Baptist Church/Sydney Rd #24", "stop_landmark": "Brunswick Baptist Church"},
{"disruption_ids": [], "stop_suburb": "Brunswick", "route_type": 1, "stop_latitude": -37.7775879, "stop_longitude": 144.960266, "stop_sequence": 0, "stop_ticket": {"ticket_type": "", "zone": "Zone 1", "is_free_fare_zone": false, "ticket_machine": false, "ticket_checks": false, "vline_reservation": false, "ticket_zones": [1]}, "stop_id": 2812, "stop_name": "Brunswick Rd/Sydney Rd #19", "stop_landmark": ""},
{"disruption_ids": [], "stop_suburb": "Brunswick", "route_type": 1, "stop_latitude": -37.7716446, "stop_longitude": 144.961258, "stop_sequence": 0, "stop_ticket": {"ticket_type": "", "zone": "Zone 1", "is_free_fare_zone": false, "ticket_machine": false, "ticket_checks": false, "vline_reservation": false, "ticket_zones": [1]}, "stop_id": 2810, "stop_name": "Brunswick Town Hall/Sydney Rd #21", "stop_landmark": "Brunswick Town Hall"},
{"disruption_ids": [], "stop_suburb": "Brunswick", "route_type": 1, "stop_latitude": -37.7578125, "stop_longitude": 144.963638, "stop_sequence": 0, "stop_ticket": {"ticket_type": "", "zone": "Zone 1", "is_free_fare_zone": false, "ticket_machine": false, "ticket_checks": false, "vline_reservation": false, "ticket_zones": [1]}, "stop_id": 2119, "stop_name": "Brunswick Tram Depot/Sydney Rd #27", "stop_landmark": "Brunswick Tram Depot"},
{"disruption_ids": [], "stop_suburb": "Coburg North", "route_type": 1, "stop_latitude": -37.7321129, "stop_longitude": 144.96463, "stop_sequence": 0, "stop_ticket": {"ticket_type": "", "zone": "Zone 1", "is_free_fare_zone": false, "ticket_machine": false, "ticket_checks": false, "vline_reservation": false, "ticket_zones": [1]}, "stop_id": 2983, "stop_name": "Carr St/Sydney Rd #38", "stop_landmark": ""},
{"disruption_ids": [], "stop_suburb": "Parkville", "route_type": 1, "stop_latitude": -37.78972, "stop_longitude": 144.958878, "stop_sequence": 0, "stop_ticket": {"ticket_type": "", "zone": "Zone 1", "is_free_fare_zone": false, "ticket_machine": false, "ticket_checks": false, "vline_reservation": false, "ticket_zones": [1]}, "stop_id": 2817, "stop_name": "Cemetery Road West/Royal Pde #14", "stop_landmark": ""},