,stop_suburb,stop_latitude,stop_longitude,stop_id,stop_name,postcode
0,brunswick east,-37.7697868,144.971954,2227,Albert St/Lygon St #123,3057
1,brunswick east,-37.76189,144.97406,2240,Albion St/Holmes St #127,3057
2,brunswick east,-37.76237,144.973267,2231,Albion St/Lygon St #127,3057
3,southbank,-37.8218422,144.969513,2203,Arts Precinct/St Kilda Rd #14,3006
4,southbank,-37.8238144,144.967255,2266,Arts Precinct/Sturt St #17,3006
5,albert park,-37.847126,144.94873,2285,Beaconsfield Pde/Victoria Ave #32,3206
6,coburg,-37.74286,144.978134,2044,Bell St/Nicholson St #135,3058
7,brunswick east,-37.7666626,144.9725,2229,Blyth St/Lygon St #125,3057
8,melbourne,-37.8132,144.965591,2206,Bourke Street Mall/Swanston St #10,3000
9,albert park,-37.84042,144.955719,2278,Bridport St/Montague St #28,3206
10,albert park,-37.8415642,144.953339,2280,Bridport St/Victoria Ave #29,3206
11,brunswick,-37.7784538,144.970627,2224,Brunswick Rd/Lygon St #120,3056
12,south melbourne,-37.83595,144.958908,2274,Cecil St/Park St #25,3205
13,melbourne,-37.8163757,144.967026,2205,City Square/Swanston St #11,3006
14,south melbourne,-37.8352051,144.9613,2273,Clarendon St/Park St #24,3205
15,coburg,-37.74942,144.976837,2262,Crozier St/Nicholson St #132,3058
16,south melbourne,-37.8322258,144.964966,2271,Dorcas St/Eastern Rd #22,3205
17,melbourne,-37.8184738,144.967987,2204,Federation Square/Swanston St #13,3006
18,carlton north,-37.78737,144.969177,2220,Fenwick St/Lygon St #116,3054
19,south melbourne,-37.83663,144.9564,2275,Ferrars St/Park St #26,3205
20,brunswick east,-37.77274,144.97142,2226,Glenlyon Rd/Lygon St #122,3057
21,albert park,-37.84567,144.949829,2283,Graham St/Victoria Ave #31,3206
22,southbank,-37.82578,144.966629,2268,Grant St/Sturt St #18,3006
23,coburg,-37.74637,144.97731,2261,Harding St/Nicholson St #133,3058
24,southbank,-37.8300934,144.965332,2270,Kings Way/Sturt St #20,3006
25,carlton,-37.80237,144.9637,2212,Lincoln Square/Swanston St #3,3053
26,carlton,-37.7971077,144.967163,2216,Lygon St/Elgin St #112,3053
27,carlton,-37.7941322,144.968018,2217,Lytton St/Lygon St #113,3053
28,carlton north,-37.7895775,144.9688,2219,Melbourne Cemetery/Lygon St #115,3054
29,melbourne,-37.8103867,144.964279,2208,Melbourne Central Station/Swanston St #8,3053
30,carlton,-37.799305,144.964188,2214,Melbourne University/Swanston St #1,3053
31,coburg,-37.74436,144.977737,2260,Merribell Ave/Nicholson St #134,3058
32,southbank,-37.82843,144.965759,2269,Miles St/Sturt St #19,3006
33,brunswick east,-37.759388,144.974335,2232,Mitchell St/Holmes St #128,3057
34,albert park,-37.84068,144.955383,2279,Montague St/Bridport St #28,3206
35,south melbourne,-37.83733,144.954453,2276,Montague St/Park St #27,3205
36,south melbourne,-37.83447,144.963852,2272,Moray St/Park St #23,3205
37,brunswick,-37.7568779,144.974762,2233,Moreland Rd/Holmes St #129,3056
38,coburg,-37.75654,144.974976,2265,Moreland Rd/Nicholson St #129,3058
39,south melbourne,-37.83752,144.954178,2277,Park St/Montague St #27,3205
40,carlton north,-37.7819252,144.970078,2222,Pigdon St/Lygon St #118,3054
41,carlton north,-37.7926865,144.968277,2218,Princes St/Lygon St #114,3054
42,carlton,-37.80569,144.9631,2211,Queensberry St/Swanston St #4,3053
43,coburg,-37.75134,144.976517,2263,Rennie St/Nicholson St #131,3058
44,carlton north,-37.7840347,144.969727,2221,Richardson St/Lygon St #117,3054
45,albert park,-37.84394,144.951279,2282,Richardson St/Victoria Ave #30,3206
46,melbourne,-37.80814,144.963287,2209,RMIT University/Swanston St #7,3053
47,brunswick east,-37.7644272,144.9729,2230,Stewart St/Lygon St #126,3057
48,coburg,-37.75357,144.975937,2264,The Avenue/Nicholson St #130,3058
49,brunswick east,-37.7682037,144.972229,2228,Victoria St/Lygon St #124,3057
50,brunswick east,-37.77567,144.970978,2225,Weston St/Lygon St #121,3057
51,southbank,-37.82329,144.956055,2500,124A-Casino/MCEC/Clarendon St,3006
52,south melbourne,-37.82745,144.953979,2505,125A-Southbank Tram Depot/Light Rail,3205
53,east melbourne,-37.80939,144.975739,2485,Albert St/Gisborne St #11,3002
54,balwyn,-37.81224,145.075928,2425,Balwyn Cinema/Whitehorse Rd #46,3103
55,balwyn,-37.8129158,145.081528,2424,Balwyn Rd/Whitehorse Rd #47,3103
56,balwyn,-37.8131981,145.083786,2422,Balwyn Shopping Centre/Whitehorse Rd #48,3103
57,kew,-37.8129654,145.023773,2450,Barkers Rd/High St #29,3101
58,melbourne,-37.82155,144.955261,2499,Batman Park/Spencer St #124,3000
59,port melbourne,-37.84079,144.932816,2510,Beacon Cove/Light Rail #129,3207
60,kew,-37.8081245,145.042313,2439,Belmont Ave/Cotham Rd #37,3101
61,box hill,-37.81788,145.122345,2409,Box Hill Central/Whitehorse Rd #58,3128
62,kew,-37.81028,145.060486,2432,Burke Rd/Cotham Rd #42,3101
63,balwyn,-37.81044,145.060852,2431,Burke Rd/Whitehorse Rd #42,3103
64,richmond,-37.81144,145.010391,2461,Burnley St/Victoria St #24,3121
65,kew,-37.807312,145.035309,2441,Charles St/Cotham Rd #35,3101
66,richmond,-37.81065,145.0008,3352,Church St/Victoria St #21,3121
68,southbank,-37.82569,144.95668,2503,Clarendon St/Whiteman St #125,3006
69,balwyn,-37.8113747,145.068665,2427,Deepdene Park/Whitehorse Rd #44,3103
70,balwyn,-37.81092,145.06488,2429,Deepdene Shopping Centre/Whitehorse Rd #43,3103
71,box hill,-37.81691,145.1156,2411,Elgar Rd/Whitehorse Rd #56,3128
72,melbourne,-37.81642,144.963409,2492,Elizabeth St/Collins St #5,3000
73,melbourne,-37.8142166,144.970718,2174,Exhibition St/Collins St #7,3006
74,kew,-37.8127136,145.02063,2454,Findon Cres/Barkers Rd #27,3101
75,hawthorn,-37.8128777,145.020767,2473,Findon St/Barkers Rd #27,3122
76,abbotsford,-37.81111,145.006866,2463,Flockhart St/Victoria St #23,3067
77,kew,-37.80894,145.049271,2241,Florence Ave/Cotham Rd #39,3101
78,kew,-37.80762,145.037918,2440,Glenferrie Rd/Cotham Rd #36,3101
79,port melbourne,-37.83705,144.9372,2509,Graham St/Light Rail #128,3207
80,balwyn,-37.81175,145.0718,2426,Hardwicke St/Whitehorse Rd #45,3103
81,kew,-37.8130264,145.023178,2451,High St/Barkers Rd #29,3101
82,kew,-37.8069878,145.0313,2615,High St/Cotham Rd #34,3101
83,collingwood,-37.8097229,144.990646,2471,Hoddle St/Victoria Pde #18,3066
84,mont albert,-37.8161659,145.109467,2412,Hood St/Whitehorse Rd #55,3127
85,mont albert,-37.8154068,145.103119,2413,Inglisby Rd/Whitehorse Rd #54,3127
86,kew,-37.8075943,145.02858,2444,Kew Junction/High St #32,3101
87,kew,-37.806675,145.031311,2445,Kew Shopping Centre/High St #33,3101
88,kew,-37.80993,145.057678,2433,Kew Traffic School/Cotham Rd #41,3101
89,east melbourne,-37.808548,144.9788,2481,Lansdowne St/Victoria Pde #13,3002
91,abbotsford,-37.8099937,144.995758,2469,Lennox St/Victoria St #20,3067
93,richmond,-37.8113136,145.007614,2462,Leslie St/Victoria St #23,3121
94,kew,-37.8085327,145.045837,2438,Marshall Ave/Cotham Rd #38,3101
95,richmond,-37.8108253,145.004044,2465,McKay St/Victoria St #22,3121
96,melbourne,-37.8156776,144.965958,2491,Melbourne Town Hall/Collins St #6,3000
97,south melbourne,-37.83024,144.948471,2507,Montague St/Light Rail #126,3205
98,balwyn,-37.8144035,145.094788,2419,Narrak Rd/Whitehorse Rd #51,3103
100,box hill,-37.81746,145.119873,2410,Nelson Rd/Whitehorse Rd #57,3128
101,port melbourne,-37.8332062,144.9435,2508,North Port Station/Light Rail #127,3207
102,abbotsford,-37.8096962,144.992966,2470,North Richmond Railway Station/Victoria St #19,3067
104,balwyn,-37.813694,145.087952,2421,Northcote Ave/Whitehorse Rd #49,3103
105,east melbourne,-37.81238,144.974487,2487,Parliament Railway Station/Macarthur St #10,3002
106,southbank,-37.8260765,144.9562,2504,Port Junction/79 Whiteman St #125,3006
107,kew,-37.8068924,145.031647,2442,QPO/Cotham Rd #34,3101
108,richmond,-37.81177,145.013229,2458,River Bvd/Victoria St #25,3121
109,east melbourne,-37.8089256,144.982224,2477,Smith St/Victoria Pde #15,3002
111,melbourne,-37.8188477,144.955063,2496,Spencer St/Collins St #1,3000
112,melbourne,-37.8135567,144.973282,2488,Spring St/Collins St #8,3002
113,kew,-37.80938,145.052917,2435,St George's Hospital/Cotham Rd #40,3101
114,east melbourne,-37.8082771,144.976135,2483,St Vincents Plaza/Victoria Pde #12,3002
116,kew,-37.81023,145.026154,2447,Stevenson St/High St #31,3101
117,kew,-37.80912,145.049744,2437,Thomas St/Cotham Rd #39,3101
118,balwyn,-37.8149452,145.099243,2415,Union Rd/Whitehorse Rd #53,3103
120,east melbourne,-37.80929,144.985733,2540,Wellington St/Victoria Pde #16,3002
122,surrey hills,-37.814106,145.091385,2420,Wharton St/Whitehorse Rd #50,3127
123,melbourne,-37.8176079,144.959427,2494,William St/Collins St #3,3000
124,caulfield north,-37.8659,145.0259,2723,48A-Dandenong Rd/Hawthorn Rd,3161
125,st kilda,-37.86205,144.9734,2887,Acland St/Fitzroy St #135,3182
126,st kilda,-37.8652,144.9735,2889,Alfred Square/The Esplanade #136,3182
127,caulfield north,-37.87034,145.005585,2775,Allan Rd/Balaclava Rd #42,3161
128,caulfield north,-37.86769,145.025757,2725,Arthur St/Hawthorn Rd #49,3161
129,melbourne,-37.8388557,144.976563,2610,Arthur St/St Kilda Rd #23,3004
131,caulfield north,-37.87289,145.0246,2727,Balaclava Rd/Hawthorn Rd #51,3161
132,balaclava,-37.8688049,144.994232,2736,Balaclava Station/Carlisle St #38,3183
133,hawthorn,-37.8148079,145.036728,2928,Barkers Rd/Glenferrie Rd #77,3122
134,st kilda,-37.8670654,144.9811,2739,Barkly St/Carlisle St #33,3182
135,melbourne,-37.8478966,144.979767,2407,Beatrice St/St Kilda Rd #26,3004
136,malvern,-37.8540764,145.029587,2901,Bell St/Glenferrie Rd #58,3144
138,st kilda,-37.8680763,144.987671,2311,Brighton Rd/Carlisle St #35,3182
139,hawthorn,-37.8227119,145.035263,2922,Burwood Rd/Glenferrie Rd #73,3122
140,hawthorn,-37.8334274,145.03331,2916,Callantina Rd/Glenferrie Rd #68,3122
141,st kilda,-37.86018,144.976776,2884,Canterbury Rd/Fitzroy St #133,3182
142,st kilda,-37.8692436,144.996735,2778,Carlisle Ave/Carlisle St #39,3182
143,caulfield north,-37.872303,145.021179,2309,Caulfield Junior College/Balaclava Rd #47,3161
144,st kilda,-37.86845,144.9905,2974,Chapel St/Carlisle St #37,3182
146,hawthorn,-37.81888,145.035965,2925,Chrystobel Cres/Glenferrie Rd #75,3122
148,melbourne,-37.8440132,144.978348,2606,Commercial Rd/St Kilda Rd #25,3004
150,kew,-37.80792,145.038116,2931,Cotham Rd/Glenferrie Rd #80,3101
151,malvern,-37.8660545,145.027817,2891,Dandenong Rd/Glenferrie Rd #48,3144
152,malvern,-37.8660545,145.027817,2892,Dandenong Rd/Glenferrie Rd #52,3144
153,malvern,-37.86104,145.028671,2896,Edsall St/Glenferrie Rd #55,3144
154,caulfield north,-37.8721428,145.0211,2247,Elmhurst Rd/Balaclava Rd #47,3161
155,st kilda east,-37.8697,145.001572,2733,Empress Rd/Balaclava Rd #41,3183
157,hawthorn,-37.8121147,145.037216,2929,Fitzwilliam St/Glenferrie Rd #78,3122
158,hawthorn,-37.835556,145.032944,2915,Gardiner Rd/Glenferrie Rd #67,3122
159,hawthorn,-37.8205338,145.035675,2923,Glenferrie Railway Station/Glenferrie Rd #74,3122
160,hawthorn,-37.8205338,145.035675,2924,Glenferrie Station/Glenferrie Rd #74,3122
161,southbank,-37.8241653,144.970474,2200,Grant St-Police Memorial/St Kilda Rd #17,3006
162,st kilda,-37.8674774,144.984009,2740,Greeves St/Carlisle St #34,3182
163,st kilda,-37.86704,144.978577,2741,Havelock St/Carlisle St #32,3182
164,caulfield north,-37.87279,145.024948,2308,Hawthorn Rd/Balaclava Rd #51,3161
165,malvern,-37.8658371,145.026443,2998,Hawthorn Rd/Dandenong Rd #48,3144
166,malvern,-37.8568268,145.029175,2900,High St/Glenferrie Rd #57,3144
167,south melbourne,-37.84987,144.98056,2406,High St/St Kilda Rd #27,3205
168,st kilda east,-37.86961,144.999634,2777,Hotham St/Balaclava Rd #40,3183
169,balaclava,-37.86943,144.9993,2734,Hotham St/Carlisle St #40,3183
170,caulfield north,-37.8696976,145.025192,2726,Inkerman Rd/Hawthorn Rd #50,3161
171,st kilda,-37.86241,144.973,2888,Jacka Bvd/Fitzroy St #135,3182
172,hawthorn,-37.8168526,145.036316,2927,Johnson St/Glenferrie Rd #76,3122
173,caulfield north,-37.87156,145.0151,2773,Kent Gr/Balaclava Rd #45,3161
174,kooyong,-37.8393364,145.03244,2911,Kooyong Railway Station/Glenferrie Rd #65,3144
175,caulfield north,-37.871727,145.017624,2728,Kooyong Rd/Balaclava Rd #46,3161
176,toorak,-37.8384933,145.032349,2914,Kooyong Tennis Centre/Glenferrie Rd #66,3142
177,south melbourne,-37.841156,144.9774,2609,Leopold St/St Kilda Rd #24,3205
179,hawthorn,-37.8186073,145.036224,2926,Liddiard St/Glenferrie Rd #75,3122
181,malvern,-37.86115,145.028458,2897,Llaneast St/Glenferrie Rd #55,3144
182,melbourne,-37.8499146,144.980545,2405,Lorne St/St Kilda Rd #27,3004
183,caulfield north,-37.871340000000004,145.01474,2729,Lumeah Rd/Balaclava Rd #45,3161
184,st kilda,-37.86698,144.976837,2968,Luna Park/The Esplanade #138,3182
185,malvern,-37.86527,145.027771,2893,Malvern Railway Station/Glenferrie Rd #53,3144
186,malvern,-37.8518333,145.029938,2903,Malvern Rd/Glenferrie Rd #59,3144
187,malvern,-37.859005,145.028824,2446,Malvern Tram Depot/Glenferrie Rd #56,3144
188,hawthorn,-37.8241539,145.034973,2920,Manningtree Rd/Glenferrie Rd #72,3122
189,malvern,-37.8457375,145.0311,2907,Mayfield Ave/Glenferrie Rd #62,3144
192,kooyong,-37.8424721,145.031662,2910,Mernda Rd/Glenferrie Rd #64,3144
193,st kilda,-37.86759,144.983963,2738,Mitchell St/Carlisle St #34,3182
194,malvern,-37.8477058,145.030731,2906,Moorakyne Ave/Glenferrie Rd #61,3144
195,south melbourne,-37.8475533,144.979721,2408,Moubray St/St Kilda Rd #26,3205
196,caulfield north,-37.871067,145.01236,2730,Ontario St/Balaclava Rd #44,3161
197,balaclava,-37.86907,144.9965,2735,Orange Gr/Carlisle St #39,3183
198,caulfield north,-37.8705559,145.008469,2731,Orrong Rd/Balaclava Rd #43,3161
199,caulfield north,-37.87118,145.01239,2774,Otira Rd/Balaclava Rd #44,3161
200,st kilda,-37.8610878,144.97525,2886,Park St/Fitzroy St #134,3182
201,melbourne,-37.83152,144.97139,2256,Park Street/St Kilda Rd #20,3004
202,kooyong,-37.84184,145.031967,2909,Power St/Glenferrie Rd #64,3144
203,st kilda,-37.85793,144.980576,2126,Princes St/Fitzroy St #132,3182
205,hawthorn,-37.8289,145.034088,2918,Riversdale Rd/Glenferrie Rd #70,3122
207,melbourne,-37.8288,144.971375,2198,Shrine of Remembrance/St Kilda Rd #19,3006
208,caulfield north,-37.87017,145.00531,2732,Sidwell Ave/Balaclava Rd #42,3161
209,malvern,-37.8541,145.029785,2902,Sorrett Ave/Glenferrie Rd #58,3144
210,hawthorn,-37.8313828,145.033661,2917,South St/Glenferrie Rd #69,3122
211,st kilda,-37.8553,144.982529,2401,St Kilda Junction/St Kilda Rd #30,3182
212,st kilda,-37.8678322,144.986572,3345,St Kilda Rd/Carlisle St #35,3182
213,st kilda,-37.8569679,144.982208,2113,St Kilda Rd/Fitzroy St #131,3182
214,st kilda,-37.86809,144.988678,2310,St Kilda Town Hall/Carlisle St #36,3182
215,malvern,-37.8496628,145.030365,2904,Stonnington Pl/Glenferrie Rd #60,3144
216,malvern,-37.8439445,145.031433,2908,Toorak Rd/Glenferrie Rd #63,3144
218,melbourne,-37.835762,144.975342,2612,Toorak Rd/St Kilda Rd #22,3004
219,st kilda,-37.853,144.9817,2403,Union St/St Kilda Rd #29,3182
220,hawthorn,-37.82604,145.0346,2919,Urquhart St/Glenferrie Rd #71,3122
221,st kilda east,-37.8699837,145.002579,2776,Vadlure Ave/Balaclava Rd #41,3183
222,kooyong,-37.8383331,145.032608,2913,Vision Australia/Glenferrie Rd #66,3144
223,caulfield north,-37.8679924,145.025528,2724,Wanda Rd/Hawthorn Rd #49,3161
224,toorak,-37.84004,145.03215,2912,Warra St/Glenferrie Rd #65,3142
225,malvern,-37.8624763,145.028259,2895,Wattletree Rd/Glenferrie Rd #54,3144
226,hawthorn,-37.81009,145.037628,2930,Wellington St/Glenferrie Rd #79,3122
227,brunswick,-37.7689476,144.961716,2808,Albert St/Sydney Rd #22,3056
228,brunswick,-37.7609634,144.963089,2804,Albion St/Sydney Rd #26,3056
229,brunswick,-37.7748375,144.960739,2400,Barkly Square/115 Sydney Rd #20,3056
230,brunswick,-37.7746544,144.960938,2811,Barkly Square/Sydney Rd #20,3056
231,coburg,-37.7414742,144.966476,2794,Bell St/Sydney Rd #34,3058
232,brunswick,-37.7653542,144.962509,2133,Blyth St/Sydney Rd #24,3056
233,melbourne,-37.813446,144.962769,2720,Bourke Street Mall/Elizabeth St #3,3000
234,brunswick,-37.76558,144.962311,2806,Brunswick Baptist Church/Sydney Rd #24,3056
235,brunswick,-37.7775879,144.960266,2812,Brunswick Rd/Sydney Rd #19,3056
236,brunswick,-37.7716446,144.961258,2810,Brunswick Town Hall/Sydney Rd #21,3056
237,brunswick,-37.7578125,144.963638,2119,Brunswick Tram Depot/Sydney Rd #27,3056
238,coburg north,-37.7321129,144.96463,2983,Carr St/Sydney Rd #38,3058
239,parkville,-37.78972,144.958878,2817,Cemetery Road West/Royal Pde #14,3052
240,coburg,-37.7432556,144.966156,2795,Coburg Market/Sydney Rd #33,3058
241,melbourne,-37.8154259,144.963669,2721,Collins St/Elizabeth St #2,3000
242,coburg,-37.7484779,144.965454,2632,Edward St/Sydney Rd #31,3058
243,melbourne,-37.8177147,144.964767,2722,Flinders Street Railway Station/Elizabeth St #1,3006
244,coburg north,-37.73386,144.965408,2984,Gaffney St/Sydney Rd #37,3058
246,parkville,-37.79268,144.958313,2819,Gatehouse St/Royal Pde #13,3052
247,brunswick,-37.77137,144.961472,2809,Glenlyon Rd/Sydney Rd #21,3056
248,coburg,-37.7448845,144.966064,2796,Harding St/Sydney Rd #32,3058
249,parkville,-37.78189,144.959641,2814,Ievers St/Royal Pde #17,3052
250,parkville,-37.78793,144.9589,2816,Leonard St/Royal Pde #15,3052
251,parkville,-37.79002,144.958633,2818,Macarthur Rd/Royal Pde #14,3052
252,melbourne,-37.8105621,144.961426,2718,Melbourne Central Station/Elizabeth St #5,3000
253,coburg north,-37.72989,144.963852,2670,Mercy College/Sydney Rd #39,3058
254,coburg,-37.7535057,144.964554,2801,Moore St/Sydney Rd #29,3058
255,brunswick,-37.75564,144.96402,2802,Moreland Rd/Sydney Rd #28,3056
257,parkville,-37.79566,144.957947,2820,Morrah St/Royal Pde #12,3052
258,coburg,-37.7450638,144.965836,2797,Munro St/Sydney Rd #32,3058
259,coburg north,-37.7275848,144.963654,2786,North Coburg Terminus/Sydney Rd #40,3058
260,melbourne,-37.80195,144.957474,2714,Pelham St/Elizabeth St #9,3050
261,melbourne,-37.8065643,144.959564,2258,Queen Victoria Market/Elizabeth St #7,3053
262,coburg,-37.73162,144.96426400000001,2789,Renown St/Sydney Rd #38,3058
263,coburg,-37.7487373,144.96521,2798,Reynard St/Sydney Rd #31,3058
264,coburg,-37.7355347,144.96608,2791,Rogers St/Sydney Rd #36,3058
265,parkville,-37.7995834,144.957672,2986,Royal Melbourne Hospital/Royal Pde #10,3052
267,coburg,-37.7375069,144.966934,2792,St Pauls Catholic Church/Sydney Rd #35,3058
268,brunswick,-37.7632332,144.962692,2805,Stewart St/Sydney Rd #25,3056
269,coburg,-37.75207,144.964645,2002,The Avenue/Sydney Rd #30,3058
270,parkville,-37.79827,144.957657,2245,University of Melbourne/Royal Pde #11,3052
271,brunswick,-37.7671432,144.962036,2117,Victoria St/Sydney Rd #23,3056
272,parkville,-37.78486,144.959274,2815,Visy Park/Royal Pde #16,3052
273,parkville,-37.7845879,144.9595,2244,Walker St/Royal Pde #16,3052
277,st kilda,-37.8599434,144.984055,2314,Alma Rd/St Kilda Rd #32,3182
278,st kilda,-37.86248,144.9849,2313,Argyle St/St Kilda Rd #33,3182
281,caulfield east,-37.87449,145.038147,2302,Balaclava Rd/Normanby Rd #55,3145
284,st kilda,-37.85797,144.983353,2399,Barkly St/St Kilda Rd #31,3182
288,malvern east,-37.87605,145.048325,2294,Burke Rd/Waverley Rd #60,3145
291,st kilda,-37.86773,144.986954,2779,Carlisle St/St Kilda Rd #35,3182
293,caulfield north,-37.87314,145.028137,2306,Caulfield Park Bowling Club/Balaclava Rd #52,3161
294,caulfield north,-37.87364,145.032043,2305,Caulfield Park/Balaclava Rd #53,3161
295,caulfield north,-37.87542,145.0394,2312,Caulfield Racecourse/Normanby Rd #56,3161
297,caulfield east,-37.8764038,145.041931,2299,Caulfield Railway Station/Derby Rd #57,3145
303,caulfield north,-37.87571,145.04187,2298,Dandenong Rd/Derby Rd #58,3161
304,malvern east,-37.87576,145.044952,2295,Dandenong Rd/Waverley Rd #59,3145
306,malvern east,-37.8772736,145.058762,2684,Darling Rd/Waverley Rd #64,3145
317,malvern east,-37.8771,145.056915,2289,Hughes St/Waverley Rd #63,3145
318,st kilda,-37.8651161,144.9859,2398,Inkerman St/St Kilda Rd #34,3182
320,caulfield east,-37.8741455,145.036133,2304,Kambrook Rd/Balaclava Rd #54,3145
330,malvern east,-37.87687,145.055,2291,Macgregor St/Waverley Rd #62,3145
335,caulfield north,-37.8742,145.0377,2303,Normanby Rd/Balaclava Rd #55,3161
336,malvern east,-37.87692,145.056549,2290,Oak Gr/Waverley Rd #63,3145
352,malvern east,-37.87638,145.051086,2293,Tennyson St/Waverley Rd #61,3145
353,malvern east,-37.8767,145.054688,2292,The Avenue/Waverley Rd #62,3145
357,north melbourne,-37.79411,144.9471,3149,Abbotsford St Interchange/Abbotsford St #19,3051
358,north melbourne,-37.80266,144.9458,3158,Abbotsford St/Queensberry St #14,3051
359,north melbourne,-37.801,144.945847,3156,Arden St/Abbotsford St #15,3051
360,maribyrnong,-37.7688942,144.891983,2379,Barb St/Raleigh Rd #44,3032
361,ascot vale,-37.77589,144.915558,3129,Bloomfield Rd/Union Rd #35,3032
362,north melbourne,-37.78913,144.93985,3148,Boundary Rd/Racecourse Rd #22,3051
364,moonee ponds,-37.7708664,144.909012,2387,Bowen St/Maribyrnong Rd #39,3039
365,ascot vale,-37.7785378,144.915222,3130,Burrowes St/Union Rd #34,3032
366,north melbourne,-37.79672,144.946533,3154,Canning St/Abbotsford St #17,3051
367,maribyrnong,-37.768856,144.877975,3126,Central Park Ave/Cordite Ave #49,3032
368,melbourne,-37.80552,144.9524,3164,Chetwynd St/Victoria St #10,3050
369,maribyrnong,-37.7697,144.898849,2382,Clyde St/Raleigh Rd #42,3032
370,kensington,-37.78851,144.933517,3146,Collett St/Racecourse Rd #24,3031
372,north melbourne,-37.80283,144.947952,3159,Curzon St/Queensberry St #13,3051
373,ascot vale,-37.77063,144.90567,2386,Epsom Rd/Maribyrnong Rd #40,3032
375,melbourne,-37.8051949,144.949448,3163,Errol St/Victoria St #11,3003
376,ascot vale,-37.7714157,144.91275,2389,Ferguson St/Maribyrnong Rd #38,3032
377,flemington,-37.78591,144.919785,3138,Flemington Racecourse/Epsom Rd #30,3031
379,flemington,-37.78735,144.922012,3139,Flemington Racecourse/Racecourse Rd #29,3031
381,north melbourne,-37.7982826,144.946335,3155,Haines St/Abbotsford St #16,3051
382,moonee ponds,-37.7712364,144.912323,2388,Hotham St/Maribyrnong Rd #38,3039
383,melbourne,-37.80556,144.9535,3121,Howard St/Victoria St #9,3050
384,maribyrnong,-37.7687454,144.889557,2378,Maribyrnong Community Centre/Raleigh Rd #45,3032
385,ascot vale,-37.7702942,144.902573,2383,Maribyrnong Park/Maribyrnong Rd #41,3032
386,ascot vale,-37.77187,144.916061,3125,Maribyrnong Rd/Union Rd #37,3032
388,ascot vale,-37.7803535,144.9148,3132,Melbourne Showgrounds/Union Rd #33,3032
389,north melbourne,-37.7903976,144.943481,2706,Melrose St/Flemington Rd #20,3051
390,north melbourne,-37.79631,144.9467,3153,Molesworth St/Abbotsford St #17,3051
391,ascot vale,-37.7761,144.91539,3128,Munro St/Union Rd #35,3032
392,kensington,-37.78807,144.928391,3143,Newmarket Plaza/Racecourse Rd #26,3031
394,north melbourne,-37.80322,144.949524,3160,North Melbourne Town Hall/Errol St #12,3051
395,north melbourne,-37.80299,144.9494,3161,North Melbourne Town Hall/Queensberry St #12,3051
396,melbourne,-37.8059349,144.9562,3122,Peel St/Victoria St #8,3050
398,north melbourne,-37.80239,144.945633,3157,Queensberry St/Abbotsford St #14,3051
399,ascot vale,-37.78402,144.918121,3136,Racing Victoria/161 Epsom Rd #31,3032
400,flemington,-37.7844238,144.918213,3135,Racing Victoria/400 Epsom Rd #31,3031
401,maribyrnong,-37.76863,144.888931,2001,Randall St/Raleigh Rd #45,3032
402,maribyrnong,-37.7688828,144.886734,2377,Rosamond Rd/Raleigh Rd #46,3032
403,ascot vale,-37.78259,144.916718,3133,Sandown Rd/Epsom Rd #32,3032
404,flemington,-37.78763,144.924957,3141,Smithfield Rd/Racecourse Rd #28,3031
405,ascot vale,-37.77357,144.915939,3127,St Leonards Rd/Union Rd #36,3032
406,flemington,-37.78877,144.936584,3147,Stubbs St/Racecourse Rd #23,3031
407,moonee ponds,-37.77164,144.915985,2390,Union Rd/Maribyrnong Rd #37,3039
408,maribyrnong,-37.76951,144.896133,2381,Van Ness Ave/Raleigh Rd #43,3032
409,north melbourne,-37.80496,144.949341,3162,Victoria St/Errol St #11,3051
410,flemington,-37.78844,144.933487,3145,Victoria St/Racecourse Rd #24,3031
411,maribyrnong,-37.7690544,144.892181,2380,Warrs Rd/Raleigh Rd #44,3032
412,flemington,-37.7882423,144.931244,3144,Wellington St/Racecourse Rd #25,3031
413,maribyrnong,-37.76931,144.882431,2396,Wests Rd/Cordite Ave #48,3032
414,maribyrnong,-37.7693825,144.8821,2376,Wests Rd/Raleigh Rd #48,3032
415,melbourne,-37.80569,144.9539,3120,William St/Victoria St #9,3050
416,essendon,-37.73655,144.890167,2658,53A-Matthews Ave/Keilor Rd,3040
417,airport west,-37.71384,144.890564,2649,Airport West/Matthews Ave #59,3042
419,essendon,-37.7387733,144.89592,2659,Bradshaw St/Keilor Rd #51,3040
420,essendon,-37.7502251,144.91423,2671,Brewster St/Mt Alexander Rd #43,3040
421,moonee ponds,-37.75825,144.926346,2679,Buckley St/Pascoe Vale Rd #37,3039
423,airport west,-37.7299156,144.890259,2654,Cameron St/Matthews Ave #55,3042
425,essendon north,-37.74003,144.899353,2660,Cooper St/Keilor Rd #50,3041
427,airport west,-37.7273254,144.890671,2652,Earl St/Matthews Ave #56,3042
428,essendon north,-37.7416878,144.902969,2662,Essendon North Primary School/Keilor Rd #49,3041
429,essendon north,-37.741497,144.902878,2443,Essendon North PS/Keilor Rd #49,3041
430,ascot vale,-37.779438,144.931213,2689,Essendon Tram Depot/Mt Alexander Rd #27,3032
431,north melbourne,-37.7882767,144.940933,2281,Flemington Bridge Station/Flemington Rd #22,3051
432,flemington,-37.785923,144.939056,2702,Flemington Community Centre/Mt Alexander Rd #23,3031
433,essendon,-37.7549248,144.9176,2674,Fletcher St/Napier St #41,3040
434,essendon,-37.75611,144.926025,2678,Fletcher St/Pascoe Vale Rd #38,3040
436,niddrie,-37.732357,144.889832,2655,Fullarton Rd/Matthews Ave #54,3042
438,essendon,-37.7464867,144.911636,2667,Glass St/Mt Alexander Rd #45,3040
439,essendon,-37.7526665,144.9159,2478,Grice Cres/Mt Alexander Rd #42,3040
440,airport west,-37.72307,144.891388,2651,Hawker St/Matthews Ave #57,3042
441,essendon,-37.7554665,144.92276,2676,Hoddle St/Fletcher St #39,3040
442,essendon,-37.73748,144.892548,2785,Hoffmans Rd/Keilor Rd #52,3040
443,niddrie,-37.7352562,144.889359,2657,Keilor Rd/Matthews Ave #53,3042
444,essendon,-37.7463837,144.911453,2750,Leake St/Mt Alexander Rd #45,3040
445,essendon,-37.7447739,144.910339,2666,Lincoln Rd/Mt Alexander Rd #46,3040
446,ascot vale,-37.7730064,144.926956,2691,Maribyrnong Rd/Mt Alexander Rd #30,3032
447,airport west,-37.7183723,144.892075,2650,Marshall Rd/Matthews Ave #58,3042
450,ascot vale,-37.77746,144.92984,2694,Middle St/Mt Alexander Rd #28,3032
451,moonee ponds,-37.7706032,144.926224,2688,Montgomery St/Mt Alexander Rd #31,3039
452,flemington,-37.7839355,144.937,2700,Mooltan St/Mt Alexander Rd #24,3031
453,moonee ponds,-37.7669373,144.924911,2685,Moonee Ponds Junction/Pascoe Vale Rd #32,3039
454,moonee ponds,-37.7643166,144.925446,2683,Moonee Valley Civic Centre/Pascoe Vale Rd #34,3039
455,travancore,-37.7825661,144.933868,3390,Mount Alexander College/Mt Alexander Rd #25,3032
457,essendon,-37.74395,144.908951,2664,Mt Alexander Rd/Keilor Rd #47,3040
458,north melbourne,-37.79759,144.9524,3311,Murphy St/Flemington Rd #15,3051
459,moonee ponds,-37.75986,144.926071,2681,Murray St/Pascoe Vale Rd #36,3039
460,essendon,-37.7551765,144.920212,2675,Nicholson St/Fletcher St #40,3040
461,moonee ponds,-37.77243,144.92691,2690,Ormond Rd/Mt Alexander Rd #30,3039
462,essendon,-37.7558136,144.925812,2677,Pascoe Vale Rd/Fletcher St #38,3040
465,moonee ponds,-37.7625275,144.925812,2682,Queens Park/Pascoe Vale Rd #35,3039
466,north melbourne,-37.7942848,144.948364,2707,Royal Childrens Hospital/Flemington Rd #19,3051
467,parkville,-37.7994766,144.9549,2711,Royal Melbourne Hospital/Flemington Rd #14,3052
469,moonee ponds,-37.7597427,144.926285,2680,Salisbury St/Pascoe Vale Rd #36,3039
470,essendon,-37.74282,144.9057,2663,Service St/Keilor Rd #48,3040
472,essendon,-37.7525,144.915649,2673,Shamrock St/Mt Alexander Rd #42,3040
473,essendon,-37.75066,144.914352,2672,Thistle St/Mt Alexander Rd #43,3040
474,essendon,-37.7481041,144.91275,2669,Thorn St/Mt Alexander Rd #44,3040
475,niddrie,-37.73723,144.892349,2788,Treadwell Rd/Keilor Rd #52,3042
476,ascot vale,-37.7755432,144.928528,2480,Warrick St/Mt Alexander Rd #29,3032
477,flemington,-37.7811165,144.932632,2698,Wellington St/Mt Alexander Rd #26,3031
479,prahran,-37.85943,145.0043,2597,Alexandra St/Dandenong Rd #36,3181
483,armadale,-37.86462,145.023682,2767,Bailey Ave/Dandenong Rd #44,3143
487,caulfield,-37.8848343,145.022446,2759,Briggs St/Hawthorn Rd #56,3162
488,windsor,-37.8574257,144.9917,2604,Chapel St/Dandenong Rd #32,3181
490,st kilda east,-37.8593941,145.004639,2598,Closeburn Ave/Dandenong Rd #36,3183
493,caulfield north,-37.87749,145.023727,2762,Crotonhurst Ave/Hawthorn Rd #53,3161
494,brighton east,-37.90657,145.018143,2746,Davey Ave/Hawthorn Rd #65,3187
495,caulfield south,-37.89506,145.02037,2753,Dover St/Hawthorn Rd #60,3162
496,brighton east,-37.9142265,145.016891,2742,East Brighton/Hawthorn Rd #68,3187
497,armadale,-37.86379,145.022049,2769,Egerton Rd/Dandenong Rd #43,3143
499,caulfield south,-37.8995,145.019531,2668,Gardenvale Rd/Hawthorn Rd #62,3162
500,caulfield,-37.88013,145.023209,2982,Glen Eira Rd/Hawthorn Rd #54,3162
502,caulfield south,-37.8870773,145.021851,2981,Glenhuntly Rd/Hawthorn Rd #57,3162
505,caulfield north,-37.87525,145.024155,2764,Halstead St/Hawthorn Rd #52,3161
508,windsor,-37.8582764,144.995758,2603,Hornby St/Dandenong Rd #33,3181
509,brighton east,-37.91109,145.0174,2743,Howell St/Hawthorn Rd #67,3187
511,armadale,-37.8625069,145.018829,2770,Kooyong Rd/Dandenong Rd #42,3143
512,prahran,-37.85983,145.007278,2596,Lansdowne Rd/Dandenong Rd #37,3181
517,caulfield,-37.88458,145.022354,2758,Lockhart St/Hawthorn Rd #56,3162
519,armadale,-37.86382,145.021912,2768,Matlock Ct/Dandenong Rd #43,3143
523,brighton east,-37.90157,145.019073,2749,North Rd/Hawthorn Rd #63,3187
524,caulfield north,-37.87721,145.023926,2763,Northcote Ave/Hawthorn Rd #53,3161
525,prahran,-37.8602753,145.011108,2623,Orrong Rd/Dandenong Rd #38,3181
528,caulfield south,-37.89313,145.020691,2754,Princes Park/Hawthorn Rd #59,3162
529,windsor,-37.85616,144.987411,2975,Queens Way/Queens Way #31,3181
532,caulfield south,-37.8967,145.020065,2751,Raynes St/Hawthorn Rd #61,3162
534,brighton east,-37.91108,145.017532,2744,Rogers Ave/Hawthorn Rd #67,3187
537,caulfield south,-37.89655,145.020248,2752,Stone St/Hawthorn Rd #61,3162
538,caulfield south,-37.88994,145.021332,2756,Sycamore St/Hawthorn Rd #58,3162
539,caulfield,-37.88258,145.02272,2760,Sylverly Gr/Hawthorn Rd #55,3162
541,brighton east,-37.90409,145.0186,2748,Taylor St/Hawthorn Rd #64,3187
542,windsor,-37.8584137,144.997238,2602,The Avenue/Dandenong Rd #34,3181
544,brighton east,-37.90873,145.017776,2745,Union St/Hawthorn Rd #66,3187
547,armadale,-37.86081,145.0147,2593,Wattletree Rd/Dandenong Rd #40,3143
548,st kilda east,-37.85851,144.997543,2601,Westbury St/Dandenong Rd #34,3183
549,prahran,-37.8590736,145.001648,2599,Williams Rd/Dandenong Rd #35,3181
554,caulfield,-37.88784,145.0289,3192,Bambra Rd/Glenhuntly Rd #54,3162
557,caulfield,-37.88896,145.037811,3367,Booran Rd/Glenhuntly Rd #58,3162
560,elsternwick,-37.8839,144.997574,3178,Brighton Rd/Glenhuntly Rd #43,3185
561,balaclava,-37.8728,144.990128,3169,Brunning St/Brighton Rd #38,3183
563,carnegie,-37.8938675,145.0558,3211,Carnegie/Truganini Rd #68,3163
564,carnegie,-37.8927,145.054367,3210,Centre Rd/Truganini Rd #67,3163
565,balaclava,-37.87177,144.989487,3168,Chapel St/Brighton Rd #37,3183
567,caulfield east,-37.8885,145.03511,3197,Clarke Ave/Glenhuntly Rd #57,3145
568,balaclava,-37.8808,144.995163,3176,Coleridge St/Brighton Rd #41,3183
572,elsternwick,-37.88431,145.000565,3179,Elsternwick Railway Station/Glenhuntly Rd #44,3185
573,elsternwick,-37.88475,145.003952,3180,Elsternwick Shopping Centre/Glenhuntly Rd #45,3185
574,caulfield,-37.88811,145.030991,3193,Fallon St/Glenhuntly Rd #55,3162
576,balaclava,-37.87664,144.992554,3172,Glen Eira Rd/Brighton Rd #39,3183
578,glen huntly,-37.88955,145.042755,3203,Glenhuntly Railway Station/Glenhuntly Rd #61,3163
580,carnegie,-37.89107,145.054047,3208,Glenhuntly Rd/Truganini Rd #66,3163
581,glen huntly,-37.8893051,145.040771,3201,Glenhuntly Shops/Glenhuntly Rd #60,3163
583,caulfield,-37.88761,145.027115,3190,Glenhuntly Tram Depot/Glenhuntly Rd #53,3162
584,glen huntly,-37.8898354,145.045044,3305,Grange Rd/Glenhuntly Rd #62,3163
587,caulfield,-37.88698,145.022186,3188,Hawthorn Rd/Glenhuntly Rd #51,3162
589,balaclava,-37.88296,144.9965,3177,Hotham St/Brighton Rd #42,3183
592,caulfield,-37.88722,145.024139,3189,Jasmine St/Glenhuntly Rd #52,3162
593,caulfield,-37.88825,145.033081,3195,Kambrook Rd/Glenhuntly Rd #56,3162
594,caulfield,-37.88842,145.033432,3196,Kean St/Glenhuntly Rd #56,3162
595,elsternwick,-37.8861,145.015091,3186,Kooyong Rd/Glenhuntly Rd #49,3185
596,caulfield,-37.88867,145.035492,3198,Laura St/Glenhuntly Rd #57,3162
601,carnegie,-37.89014,145.047653,2486,Maroona Rd/Glenhuntly Rd #63,3163
604,carnegie,-37.8904037,145.0499,2653,Mernda Ave/Glenhuntly Rd #64,3163
605,carnegie,-37.89071,145.052185,2665,Mimosa Rd/Glenhuntly Rd #65,3163
607,elsternwick,-37.88505,145.00621,3181,Orrong Rd/Glenhuntly Rd #46,3185
609,elsternwick,-37.88576,145.012238,3184,Parkside St/Glenhuntly Rd #48,3185
612,caulfield,-37.8865,145.018265,3187,Royal Pde/Glenhuntly Rd #50,3162
613,balaclava,-37.87889,144.993973,3173,Scott St/Brighton Rd #40,3183
615,elsternwick,-37.88539,145.009109,3182,Shoobra Rd/Glenhuntly Rd #47,3185
618,elwood,-37.87012,144.988358,3365,St Kilda Primary School/Brighton Rd #36,3184
621,carnegie,-37.89078,145.054077,3209,Truganini Rd/Glenhuntly Rd #66,3163
623,elwood,-37.87288,144.990082,3170,Wimbledon Ave/Brighton Rd #38,3184
624,melbourne,-37.8181648,144.976212,2482,7A-William Barak Bridge/Melbourne Park,3002
625,melbourne,-37.81959,144.979126,2171,7B-Rod Laver Arena/MCG Gates 1-3,3002
626,melbourne,-37.8223839,144.983521,2140,7C-MCG Gates 4-7/John Cain Arena,3002
627,melbourne,-37.8241348,144.986847,2100,7D-Olympic Boulevard,3002
628,surrey hills,-37.8368568,145.104645,2102,Alandale St/Riversdale Rd #59,3127
629,hawthorn east,-37.8297729,145.0435,2103,Auburn Rd/Riversdale Rd #36,3123
630,hawthorn,-37.82916,145.037262,2104,Berkeley St/Riversdale Rd #33,3122
631,richmond,-37.8265953,145.006882,2108,Burnley St/Swan St #14,3121
632,camberwell,-37.8314857,145.057144,2105,Camberwell Junction/Riversdale Rd #40,3124
634,camberwell,-37.83141,145.057632,2109,Camberwell Market/517 Riversdale Rd #41,3124
635,hawthorn east,-37.8310242,145.0543,2150,Camberwell Tram Depot/Riversdale Rd #39,3123
636,richmond,-37.82576,144.9981,2110,Church St/Swan St #11,3121
637,camberwell,-37.8336525,145.0771,2112,Cooloongatta Rd/Riversdale Rd #48,3124
638,richmond,-37.8262634,145.002579,2114,Coppin St/Swan St #12,3121
639,docklands,-37.81378,144.9405,2703,D10-New Quay Prom/Docklands Dr,3008
640,docklands,-37.8133125,144.941513,2783,D10-NewQuay Prom/Docklands Dr,3008
641,docklands,-37.8143425,144.938751,2876,D11-Waterfront City/Docklands Dr,3008
642,docklands,-37.8147049,144.9449,2049,D2-Central Pier/Harbour Esp,3008
643,docklands,-37.8178177,144.946243,2870,D3-Stadium Precinct - Bourke St/Harbour Esp,3008
644,docklands,-37.82147,144.947617,2871,D4-Docklands Park/Harbour Esp,3008
645,docklands,-37.82183,144.951218,2872,D5-South Wharf/Wurundjeri Way,3008
646,docklands,-37.8214722,144.953613,2874,D6-Flinders Street West/Flinders St,3008
647,southbank,-37.8217239,144.953217,2875,D6-Victoria Police Centre/Flinders St,3006
648,camberwell,-37.83234,145.065887,2116,Derby St/Riversdale Rd #44,3124
649,burnley,-37.8265076,145.0049,2120,Edinburgh St/Swan St #13,3121
651,surrey hills,-37.8376045,145.110367,2686,Elgar Rd/Riversdale Rd #61,3127
652,melbourne,-37.8182335,144.96463,2095,Elizabeth St/Flinders St #4,3006
653,camberwell,-37.8352165,145.090958,2123,Essex Rd/Riversdale Rd #53,3124
655,camberwell,-37.8316879,145.0602,2125,Fermanagh Rd/Riversdale Rd #42,3124
656,surrey hills,-37.8370857,145.106659,2127,Ferndale St/Riversdale Rd #60,3127
657,hawthorn,-37.8285065,145.031631,2128,Fordholm Rd/Riversdale Rd #31,3122
658,surrey hills,-37.8362,145.100311,2130,Glendale St/Riversdale Rd #57,3127
659,hawthorn,-37.82884,145.03447,2131,Glenferrie Rd/Riversdale Rd #32,3122
660,camberwell,-37.83389,145.07933,2132,Glyndon Rd/Riversdale Rd #49,3124
661,hawthorn east,-37.83069,145.051346,2134,Hastings Rd/Riversdale Rd #38,3123
662,canterbury,-37.83437,145.084854,2136,Highfield Rd/Riversdale Rd #51,3126
664,hawthorn,-37.82918,145.038467,2137,Kooyongkoot Rd/Riversdale Rd #34,3122
665,richmond,-37.8252373,144.993484,2138,Lennox St/Swan St #9,3121
666,camberwell,-37.83475,145.088135,2139,Lockhart St/Riversdale Rd #52,3124
667,burnley,-37.82747,145.01651,2141,Madden Gr/Swan St #17,3121
668,melbourne,-37.8190651,144.961792,2092,Market St/Flinders St #3,3000
669,melbourne,-37.82031,144.957825,3317,Melbourne Aquarium/Flinders St #2,3000
670,burnley,-37.8272629,145.01178,2145,Park Gr/Swan St #16,3121
671,hawthorn,-37.82739,145.025436,2147,Power St/Riversdale Rd #29,3122
672,richmond,-37.82468,144.989059,3381,Richmond Station/Swan St #8,3121
674,hawthorn,-37.82954,145.04155,2149,Robinson Rd/Riversdale Rd #35,3122
675,melbourne,-37.8165627,144.97049,2097,Russell St/Flinders St #6,3006
676,canterbury,-37.832695,145.0693,2152,Spencer Rd/Riversdale Rd #46,3126
678,melbourne,-37.82083,144.955841,3318,Spencer St/Flinders St #1,3000
679,richmond,-37.8269043,145.0096,2154,Stawell St/Swan St #15,3121
681,richmond,-37.8255272,144.996048,2111,Swan Street Shopping Centre/Swan St #10,3121
682,melbourne,-37.8175621,144.967133,2096,Swanston St/Flinders St #5,3006
683,camberwell,-37.8355331,145.0938,2155,Through Rd/Riversdale Rd #54,3124
685,hawthorn,-37.82821,145.029068,2157,Through St/Riversdale Rd #30,3122
686,hawthorn east,-37.83026,145.047638,2158,Tooronga Rd/Riversdale Rd #37,3123
687,camberwell,-37.83206,145.0635,2159,Trafalgar Rd/Riversdale Rd #43,3124
688,canterbury,-37.835762,145.09581,2161,Union Rd/Riversdale Rd #55,3126
690,surrey hills,-37.8358955,145.098053,2164,Warrigal Rd/Riversdale Rd #56,3127
691,surrey hills,-37.83675,145.102615,2143,Wattle Park/1013 Riversdale Rd #58,3127
692,surrey hills,-37.8365326,145.102188,2239,Wattle Park/Riversdale Rd #58,3127
693,canterbury,-37.83412,145.0812,2165,Wattle Valley Rd/Riversdale Rd #50,3126
694,canterbury,-37.833107,145.0724,2169,Willow Gr/Riversdale Rd #47,3126
696,burnley,-37.826664,145.019547,2118,Yarra Bvd/Swan St #18,3121
697,toorak,-37.8489227,145.01,3231,A'Beckett St/Malvern Rd #36,3142
698,toorak,-37.85076,145.023956,3237,Albany Rd/Malvern Rd #41,3142
699,prahran,-37.84536,144.982315,3213,Alfred Hospital/Commercial Rd #26,3181
701,hawthorn east,-37.84186,145.054626,3302,Anderson Rd/Burke Rd #56,3123
705,glen iris,-37.85405,145.048416,3249,Belmont Ave/Malvern Rd #49,3146
706,prahran,-37.84745,144.998047,3223,Bendigo St/Malvern Rd #32,3181
707,glen iris,-37.84988,145.053223,3255,Bickleigh St/Burke Rd #52,3146
709,prahran,-37.84607,144.987564,3216,Braille Library/Commercial Rd #28,3181
711,malvern,-37.85432,145.051483,3299,Burke Rd/Malvern Rd #50,3144
712,hawthorn east,-37.81859,145.059052,3282,Camberwell Girls Grammar/Burke Rd #67,3123
714,camberwell,-37.83109,145.056839,3270,Camberwell Junction/Burke Rd #61,3124
715,hawthorn east,-37.8302,145.056824,3273,Camberwell Shopping Centre/755 Burke Rd #62,3123
716,hawthorn east,-37.82605,145.057632,3276,Camberwell Station/Burke Rd #64,3123
718,camberwell,-37.8212852,145.058731,3279,Canterbury Rd/Burke Rd #66,3124
719,toorak,-37.84895,145.009323,3230,Canterbury Rd/Malvern Rd #36,3142
720,south yarra,-37.84676,144.994019,3220,Chapel St/Commercial Rd #31,3141
721,prahran,-37.8469353,144.994217,3221,Chapel St/Malvern Rd #31,3181
723,toorak,-37.84962,145.015366,3233,Clendon Rd/Malvern Rd #38,3142
726,kew,-37.81087,145.0606,2695,Cotham Rd/Burke Rd #70,3101
727,camberwell,-37.83809,145.055527,3264,Currajong Ave/Burke Rd #58,3124
728,toorak,-37.85016,145.018433,3234,Densham Rd/Malvern Rd #39,3142
729,malvern,-37.85356,145.045563,3298,Edgar St/Malvern Rd #48,3144
731,malvern,-37.85226,145.035309,3243,Elizabeth St/Malvern Rd #45,3144
732,hawthorn east,-37.84817,145.053391,3257,Faircroft Ave/Burke Rd #53,3123
734,south yarra,-37.8476524,145.000427,3225,Francis St/Malvern Rd #33,3141
735,hawthorn east,-37.8528557,145.052673,3253,Gardiner Railway Station/Burke Rd #51,3123
736,glen iris,-37.85296,145.052658,3252,Gardiner Station/Burke Rd #51,3146
737,glen iris,-37.85442,145.0513,3251,Glenarm Rd/Malvern Rd #50,3146
738,malvern,-37.85172,145.0302,3295,Glenferrie Rd/Malvern Rd #43,3144
741,hawthorn east,-37.8497772,145.05304,3256,Harris Ave/Burke Rd #52,3123
742,south yarra,-37.84788,145.00116,3226,Hobson St/Malvern Rd #33,3141
743,glen iris,-37.84788,145.053635,3258,Howitt St/Burke Rd #53,3146
744,toorak,-37.8500557,145.018677,3235,Irving Rd/Malvern Rd #39,3142
745,malvern,-37.8539,145.048325,3250,Kenilworth Gr/Malvern Rd #49,3144
746,toorak,-37.8504028,145.0213,3236,Kooyong Rd/Malvern Rd #40,3142
747,toorak,-37.85105,145.026138,3239,Lauriston Girls School/Malvern Rd #42,3142
751,hawthorn east,-37.8381653,145.055328,3265,Leura Gr/Burke Rd #58,3123
753,toorak,-37.84859,145.006485,3228,Lorne Rd/Malvern Rd #35,3142
754,toorak,-37.84848,145.006683,3229,Mathoura Rd/Malvern Rd #35,3142
757,malvern,-37.85278,145.03923,3245,Meredith St/Malvern Rd #46,3144
758,hawthorn east,-37.8437958,145.054245,3301,Middle Rd/Burke Rd #55,3123
760,kew,-37.81599,145.05954,3284,Mont Albert Rd/Burke Rd #68,3101
762,malvern,-37.850880000000004,145.023926,3238,Murray St/Malvern Rd #41,3144
763,toorak,-37.84919,145.012085,2341,Orrong Rd/Malvern Rd #37,3142
765,balwyn,-37.81411,145.060074,3285,Peverill St/Burke Rd #69,3103
766,camberwell,-37.84006,145.055145,3263,Pine Ave/Burke Rd #57,3124
768,malvern,-37.8519,145.0325,3241,Plant St/Malvern Rd #44,3144
769,hawthorn east,-37.83541,145.055832,3266,Pleasant Rd/Burke Rd #59,3123
770,prahran,-37.84651,144.9907,3218,Porter St/Commercial Rd #29,3181
772,prahran,-37.84671,144.992432,3219,Prahran Market/Commercial Rd #30,3181
774,hawthorn east,-37.82822,145.05722,3274,Prospect Hill Rd/Burke Rd #63,3123
776,prahran,-37.84577,144.985153,3214,Punt Rd/Commercial Rd #27,3181
779,hawthorn east,-37.82148,145.058472,3280,Rathmines Rd/Burke Rd #66,3123
780,hawthorn east,-37.83157,145.056564,3272,Riversdale Rd/Burke Rd #61,3123
782,kew,-37.8141327,145.059875,3286,Sackville St/Burke Rd #69,3101
783,camberwell,-37.83519,145.056076,3267,Seymour Gr/Burke Rd #59,3124
784,malvern,-37.85286,145.038818,3246,Shaftesbury Ave/Malvern Rd #46,3144
786,south yarra,-37.84729,144.9978,3224,Surrey Rd/Malvern Rd #32,3141
787,glen iris,-37.8458,145.053879,3300,Toorak Rd/Burke Rd #54,3146
790,malvern,-37.85313,145.041992,3297,Tooronga Rd/Malvern Rd #47,3144
792,hawthorn east,-37.8235855,145.05806,3278,Victoria Rd/Burke Rd #65,3123
794,south yarra,-37.848,145.003052,3227,Williams Rd/Malvern Rd #34,3141
796,camberwell,-37.83981,145.0663,3061,Acheron Ave/Camberwell Rd #46,3124
797,camberwell,-37.84985,145.090057,3068,Alfred Rd/Toorak Rd #56,3124
799,camberwell,-37.84966,145.0896,3024,Barkly St/Toorak Rd #56,3124
800,burwood east,-37.85129,145.141876,3036,Benwerrin Reserve/Burwood Hwy #68,3151
802,camberwell,-37.84952,145.087265,3067,Beryl St/Toorak Rd #55,3124
803,burwood east,-37.8525772,145.151123,3038,Blackburn Rd/Burwood Hwy #70,3151
804,richmond,-37.8183632,144.9965,3002,Bosisto St/Bridge Rd #17,3121
805,camberwell,-37.83771,145.0642,3042,Bowen St/Camberwell Rd #45,3124
806,camberwell,-37.83209,145.057724,3012,Burke Rd/Camberwell Rd #41,3124
807,richmond,-37.81954,145.008881,3004,Burnley St/Bridge Rd #21,3121
808,hawthorn,-37.82175,145.026276,3056,Burwood Rd/Power St #27,3122
809,camberwell,-37.834568,145.060638,3014,Camberwell Civic Centre/Camberwell Rd #43,3124
810,camberwell,-37.8315926,145.056931,3340,Camberwell Junction/Camberwell Rd #40,3124
812,camberwell,-37.83305,145.058868,3013,Camberwell Primary School/Camberwell Rd #42,3124
814,camberwell,-37.8394,145.066086,3016,Christowel St/Camberwell Rd #46,3124
815,richmond,-37.81847,144.9988,2829,Church St/Bridge Rd #18,3121
816,richmond,-37.81898,145.003571,2999,Coppin St/Bridge Rd #20,3121
823,burwood,-37.84999,145.115234,3049,Deakin University/Burwood Hwy #63,3125
824,burwood,-37.8495064,145.1087,3032,Elgar Rd/Burwood Hwy #62,3125
826,richmond,-37.81791,144.9938,3001,Epworth Hospital/Bridge Rd #15,3121
827,camberwell,-37.84998,145.092361,3025,Fairview Ave/Toorak Rd #57,3124
828,camberwell,-37.84591,145.07341,2248,Fordham Gardens/Camberwell Rd #50,3124
830,burwood,-37.8507423,145.09874,3070,Gilmour St/Burwood Hwy #59,3125
831,camberwell,-37.84234,145.069168,3018,Glen Iris Rd/Camberwell Rd #48,3124
833,camberwell,-37.8492,145.0846,3066,Grandview Ave/Toorak Rd #54,3124
835,hawthorn,-37.8199463,145.016373,2416,Hawthorn Bridge/Bridge Rd #23,3122
836,hawthorn,-37.82145,145.024826,3008,Hawthorn Railway Station/Burwood Rd #26,3122
837,camberwell,-37.84874,145.081818,3021,Highfield Rd/Toorak Rd #53,3124
838,burwood east,-37.85194,145.146347,3037,Highview Gr/Burwood Hwy #69,3151
839,east melbourne,-37.8157463,144.979782,2823,Jolimont Rd/Wellington Pde #10,3002
840,east melbourne,-37.8163376,144.984818,2825,Jolimont Station-MCG/Wellington Pde #11,3002
841,burwood east,-37.85185,145.14624,2476,Keats St/Burwood Hwy #69,3151
843,burwood east,-37.8543663,145.164627,3046,Lakeside Dr/Burwood Hwy #72,3151
844,east melbourne,-37.81545,144.977158,3041,Lansdowne St/Wellington Pde #9,3002
846,camberwell,-37.84892,145.0823,3065,Lithgow St/Toorak Rd #53,3124
847,camberwell,-37.84081,145.067642,2172,Maple Cres/Camberwell Rd #47,3124
850,burwood,-37.85202,145.131836,3034,Middleborough Rd/Burwood Hwy #66,3125
851,burwood,-37.85051,145.102158,3071,Millicent St/Burwood Hwy #60,3125
852,camberwell,-37.84904,145.0843,3022,Oberwyl Rd/Toorak Rd #54,3124
853,burwood east,-37.8514748,145.138138,2423,Old Burwood Rd/Burwood Hwy #67,3151
854,camberwell,-37.84115,145.06781,3017,Orange Gr/Camberwell Rd #47,3124
855,camberwell,-37.84212,145.069122,2417,Orrong Cres/Camberwell Rd #48,3124
856,hawthorn,-37.82147,145.026276,3009,Power St/Burwood Rd #27,3122
858,burwood,-37.84997,145.105484,3031,Presbyterian Ladies College/Burwood Hwy #61,3125
859,richmond,-37.81753,144.990219,2827,Punt Rd/Bridge Rd #14,3121
860,melbourne,-37.81739,144.989685,3000,Punt Rd/Wellington Pde #14,3002
861,camberwell,-37.85016,145.092728,3069,Queens Pde/Toorak Rd #57,3124
862,richmond,-37.81875,145.001373,3003,Richmond Town Hall/Bridge Rd #19,3121
864,burwood,-37.85044,145.1021,3030,Roslyn St/Burwood Hwy #60,3125
866,burwood east,-37.85362,145.158539,3047,Sevenoaks Rd/Burwood Hwy #71,3151
867,east melbourne,-37.81654,144.986984,2826,Simpson St/Wellington Pde #13,3002
868,camberwell,-37.84591,145.0732,3043,Smith Rd/Camberwell Rd #50,3124
869,burwood,-37.8507,145.098984,3028,Somers St/Burwood Hwy #59,3125
871,melbourne,-37.81532,144.974609,2877,Spring St/Flinders St #8,3002
872,vermont south,-37.8549347,145.170151,3039,Springvale Rd/Burwood Hwy #73,3133
874,hawthorn,-37.82088,145.021027,2166,St James Park/Burwood Rd #25,3122
875,vermont south,-37.85554,145.174973,3045,Stanley Rd/Burwood Hwy #74,3133
876,burwood,-37.8512573,145.125977,3048,Starling St/Burwood Hwy #65,3125
877,burwood,-37.85055,145.1194,3033,Station St/Burwood Hwy #64,3125
878,camberwell,-37.8482,145.077087,3044,Summerhill Rd/Toorak Rd #52,3124
880,camberwell,-37.84932,145.086716,3023,Through Rd/Toorak Rd #55,3124
882,camberwell,-37.847847,145.075623,3020,Toorak Rd/Camberwell Rd #51,3124
884,camberwell,-37.83592,145.062164,3015,Trafalgar Rd/Camberwell Rd #44,3124
885,camberwell,-37.84414,145.071426,3019,Tyrone St/Camberwell Rd #49,3124
886,vermont south,-37.8564453,145.181931,3040,Vermont South Shopping Centre/Burwood Hwy #75,3133
887,richmond,-37.818222,144.996643,3315,Waltham St/Bridge Rd #17,3121
888,burwood,-37.8504372,145.09584,3312,Warrigal Rd/Burwood Hwy #58,3125
890,hawthorn,-37.82478,145.025864,3010,Wattle Rd/Power St #28,3122
891,camberwell,-37.84443,145.071518,2384,Wilson Gr/Camberwell Rd #49,3124
892,richmond,-37.8201,145.013962,3005,Yarra Bvd/Bridge Rd #22,3121
893,richmond,-37.8203049,144.99881,2322,Abinger St/Church St #60,3121
894,cremorne,-37.82897,144.997269,2327,Adelaide St/Church St #55,3121
895,st kilda east,-37.861580000000004,144.9915,2348,Alma Rd/Chapel St #40,3183
896,st kilda east,-37.86339,144.99118,2349,Argyle St/Chapel St #39,3183
897,south yarra,-37.84203,144.994965,2334,Arthur St/Chapel St #49,3141
898,richmond,-37.812252,145.000427,2316,Baker St/Church St #64,3121
899,richmond,-37.8304749,144.996979,2328,Balmain St/Church St #54,3121
900,richmond,-37.8187256,144.999084,2321,Bridge Rd/Church St #61,3121
901,st kilda,-37.87109,144.989777,2434,Brighton Rd/Chapel St #36,3182
902,st kilda,-37.8684769,144.990234,2122,Carlisle St/Chapel St #37,3182
903,prahran,-37.84911,144.993683,2340,Chatham St/Chapel St #46,3181
904,south yarra,-37.84383,144.994659,2337,Cliff St/Chapel St #48,3141
905,prahran,-37.8469734,144.994034,2339,Commercial Rd/Chapel St #47,3181
906,cremorne,-37.830330000000004,144.997177,2329,Cotter St/Church St #54,3121
907,st kilda east,-37.85792,144.992157,2459,Dandenong Rd/Chapel St #42,3183
909,windsor,-37.8541,144.992828,2455,Duke St/Chapel St #44,3181
911,richmond,-37.82664,144.997833,3347,East Richmond Railway Station/Church St #56,3121
912,richmond,-37.8125954,145.000168,2317,Elizabeth St/Church St #64,3121
913,richmond,-37.82877,144.997452,2326,Gibbons St/Church St #55,3121
914,richmond,-37.8240547,144.998154,2324,Gipps St/Church St #58,3121
915,prahran,-37.8519554,144.993286,2342,High St/Chapel St #45,3181
916,richmond,-37.8159561,144.999573,2320,Highett St/Church St #62,3121
917,richmond,-37.83267,144.9968,2330,Howard St/Church St #53,3121
918,st kilda east,-37.8654366,144.9908,2350,Inkerman St/Chapel St #38,3183
919,richmond,-37.8143272,145.000046,2318,Kent St/Church St #63,3121
920,south yarra,-37.8363647,144.996338,2332,Malcolm St/Chapel St #51,3141
921,south yarra,-37.8467,144.994263,2338,Malvern Rd/Chapel St #47,3141
922,south yarra,-37.84157,144.995285,2335,Palermo St/Chapel St #49,3141
923,richmond,-37.8218422,144.998535,2323,St Ignatius Church/Church St #59,3121
924,st kilda east,-37.8593826,144.992081,2346,St Michaels Grammar School/Chapel St #41,3183
926,richmond,-37.8257828,144.997818,2325,Swan St/Church St #57,3121
927,south yarra,-37.8396454,144.9955,2333,Toorak Rd/Chapel St #50,3141
928,richmond,-37.8143158,144.999878,2319,Tweedie Pl/Church St #63,3121
929,richmond,-37.8107224,145.000626,2315,Victoria St/Church St #65,3121
930,south yarra,-37.8436356,144.994888,2336,Wilson St/Chapel St #48,3141
931,windsor,-37.8562431,144.992447,2456,Windsor Railway Station/Chapel St #43,3181
933,moonee ponds,-37.7724724,144.9237,2393,Ascot Vale Rd/Maribyrnong Rd #34,3039
934,footscray,-37.7904778,144.889542,2361,Ballarat Rd/Gordon St #58,3011
937,moonee ponds,-37.7700539,144.924286,2395,Chaucer St/Ascot Vale Rd #33,3039
939,footscray,-37.7925835,144.89357,2360,Droop St/Ballarat Rd #59,3011
940,maribyrnong,-37.7848969,144.8906,2364,Edgewater Square/Gordon St #56,3032
944,footscray,-37.8000832,144.901062,2354,Footscray Market/Leeds St #63,3011
945,footscray,-37.8013649,144.900925,2353,Footscray Station/Leeds St #64,3011
946,footscray,-37.7967949,144.897125,2358,Geelong Rd/Droop St #61,3011
947,maribyrnong,-37.78,144.89093,2368,Gordon St/River St #54,3032
948,maribyrnong,-37.7731,144.882187,2374,Highpoint Shopping Centre/Wests Rd #49,3032
950,footscray,-37.7998543,144.900909,2355,Leeds St/Hopkins St #63,3011
951,maribyrnong,-37.782238,144.891159,2366,Lyric St/Gordon St #55,3032
952,maribyrnong,-37.7795944,144.887787,2369,Maribyrnong College/River St #53,3032
955,moonee ponds,-37.7724571,144.924026,2394,Maribyrnong Rd/Ascot Vale Rd #34,3039
957,moonee ponds,-37.77221,144.921127,2392,Moore St/Maribyrnong Rd #35,3039
958,footscray,-37.7992744,144.899414,2357,Nicholson St/Droop St #62,3011
959,footscray,-37.7998428,144.899734,2356,Nicholson St/Hopkins St #62,3011
960,maribyrnong,-37.76964,144.882813,2375,Raleigh Rd/Wests Rd #48,3032
962,maribyrnong,-37.7785034,144.885208,2542,River St/Rosamond Rd #52,3032
964,maribyrnong,-37.7793274,144.885742,2370,Rosamond Rd/River St #52,3032
965,footscray,-37.7948875,144.895523,2359,Tiernan St/Droop St #60,3011
966,footscray,-37.7886429,144.889923,2363,Titch St/Gordon St #57,3011
971,maribyrnong,-37.77521,144.882141,2372,Wests Rd/Williamson Rd #50,3032
972,maidstone,-37.77604,144.885574,2371,Williamson Rd/Rosamond Rd #51,3012
973,maribyrnong,-37.7749329,144.881989,2373,Williamson Rd/Wests Rd #50,3032
976,south melbourne,-37.84023,144.95874,2961,Albert Park Station/Light Rail #128,3205
977,fitzroy,-37.8096733,144.972946,2005,Albert St/Nicholson St #10,3065
979,brunswick east,-37.77042,144.979828,2936,Albert St/Nicholson St #22,3057
980,carlton,-37.79172,144.975937,2951,Alexandra Pde/Nicholson St #15,3053
984,st kilda,-37.8688736,144.979935,2284,Belford St/Acland St #139,3182
985,brunswick east,-37.7669678,144.9803,2934,Blyth St/Nicholson St #23,3057
986,fitzroy,-37.77933,144.978226,2942,Brunswick Rd/Nicholson St #19,3065
988,south melbourne,-37.8295555,144.954453,2959,City Rd/Light Rail #126,3205
990,melbourne,-37.8142128,144.963516,2029,Elizabeth St/Bourke St #5,3000
991,middle park,-37.8537636,144.971024,2964,Fraser St/Light Rail #131,3206
992,fitzroy north,-37.7888145,144.976532,2948,Freeman St/Nicholson St #16,3068
993,brunswick east,-37.7741432,144.97908,2938,Glenlyon Rd/Nicholson St #21,3057
995,fitzroy north,-37.7799339,144.978165,2941,Holden St/Nicholson St #19,3068
997,carlton,-37.7976151,144.974945,2955,Johnston St/Nicholson St #13,3053
1000,fitzroy,-37.80576,144.9736,2032,Melbourne Museum/Nicholson St #11,3065
1001,middle park,-37.84527,144.96167,2800,Melbourne Sports and Aquatic Centre/Light Rail #129,3206
1002,middle park,-37.84963,144.965683,2963,Middle Park Station/Light Rail #130,3206
1003,brunswick east,-37.77678,144.978638,2940,Miller St/Nicholson St #20,3057
1005,fitzroy,-37.80189,144.974243,2958,Moor St/Nicholson St #12,3065
1008,melbourne,-37.81525,144.959824,2067,Queen St/Bourke St #4,3000
1009,fitzroy north,-37.7855835,144.977142,2945,Reid St/Nicholson St #17,3068
1011,carlton,-37.79524,144.975327,2953,Rose St/Nicholson St #14,3053
1013,melbourne,-37.812767,144.968353,2071,Russell St/Bourke St #7,3053
1014,fitzroy north,-37.7830734,144.9776,2943,Scotchmer St/Nicholson St #18,3068
1016,south melbourne,-37.8331566,144.95549,2960,South Melbourne Station/Light Rail #127,3205
1017,melbourne,-37.81877,144.954086,2497,Southern Cross Railway Station/Spencer St #122,3000
1018,melbourne,-37.81706,144.9535,2091,Spencer St/Bourke St #1,3000
1019,melbourne,-37.81154,144.97258,2076,Spring St/Bourke St #9,3053
1020,st kilda,-37.8592834,144.977631,2883,St Kilda Station/Fitzroy St #132,3182
1021,melbourne,-37.813488,144.9659,2077,Swanston St/Bourke St #6,3000
1022,melbourne,-37.81588,144.957626,2087,William St/Bourke St #3,3000
1024,malvern east,-37.8643875,145.043716,2580,Anderson St/Wattletree Rd #50,3145
1025,armadale,-37.86094,145.017792,2591,Armadale St/Wattletree Rd #41,3143
1030,malvern east,-37.8650742,145.050064,2577,Burke Rd/Wattletree Rd #52,3145
1031,malvern,-37.86315,145.033859,2584,Cabrini Hospital/Wattletree Rd #47,3144
1037,malvern,-37.86357,145.0371,2583,Dixon St/Wattletree Rd #48,3144
1038,armadale,-37.862072,145.025375,2588,Duncraig Ave/Wattletree Rd #44,3143
1039,armadale,-37.8617134,145.022751,2589,Egerton Rd/Wattletree Rd #43,3143
1040,malvern east,-37.8646164,145.04657,2579,Erica Ave/Wattletree Rd #51,3145
1042,malvern,-37.8624573,145.0285,2587,Glenferrie Rd/Wattletree Rd #45,3144
1046,armadale,-37.8613434,145.0199,2590,Kooyong Rd/Wattletree Rd #42,3143
1056,malvern,-37.8626556,145.03096,2586,Nicholls St/Wattletree Rd #46,3144
1057,malvern east,-37.8647842,145.047,2578,Nott St/Wattletree Rd #51,3145
1066,malvern,-37.8628273,145.031387,2585,Soudan St/Wattletree Rd #46,3144
1070,malvern east,-37.863987,145.040283,2582,Tooronga Rd/Wattletree Rd #49,3145
1072,malvern east,-37.86423,145.043381,2581,Vincent St/Wattletree Rd #50,3145
1078,melbourne,-37.81167,144.973251,2013,Bourke St/Spring St #0,3065
1079,docklands,-37.8145752,144.946411,2869,D1-Stadium Precinct/La Trobe St,3008
1090,melbourne,-37.81029,144.9616,2864,Elizabeth St/La Trobe St #5,3053
1091,melbourne,-37.8081,144.969025,2861,Exhibition St/La Trobe St #8,3053
1092,melbourne,-37.8124466,144.954132,2867,King St/La Trobe St #2,3003
1093,melbourne,-37.8076172,144.970963,2859,La Trobe St/Victoria St #9,3053
1096,carlton,-37.80784,144.972839,2858,Nicholson St/Victoria Pde #10,3053
1097,melbourne,-37.8110046,144.959122,2865,Queen St/La Trobe St #4,3000
1099,melbourne,-37.8088264,144.966568,2862,Russell St/La Trobe St #7,3053
1101,melbourne,-37.8131142,144.951767,3271,Spencer St/La Trobe St #1,3003
1102,melbourne,-37.81321,144.9512,2868,Spencer St/La Trobe St #119,3003
1105,melbourne,-37.8095474,144.964081,2863,Swanston St/La Trobe St #6,3053
1106,melbourne,-37.80766,144.970276,2860,Victoria St/La Trobe St #9,3053
1107,melbourne,-37.81171,144.956711,2866,William St/La Trobe St #3,3003
1127,reservoir,-37.72557,145.022812,2787,Albert St/Plenty Rd #55,3073
1128,clifton hill,-37.79362,144.985275,2006,Alexandra Pde/Smith St #21,3068
1130,northcote,-37.76941,144.9989,2072,Arthurton Rd/High St #33,3070
1131,thornbury,-37.75832,145.000549,2035,Ballantyne St/High St #39,3071
1132,preston,-37.74576,145.006,2008,Bell St/Plenty Rd #45,3072
1133,northcote,-37.7676125,144.9991,2057,Bent St/High St #34,3070
1134,thornbury,-37.75436,145.001236,2010,Blythe St/High St #41,3071
1135,reservoir,-37.7254372,145.022949,2004,Boldrewood Pde/Plenty Rd #55,3073
1136,kingsbury,-37.72001,145.03685,2015,Browning St/Plenty Rd #58,3083
1137,fitzroy,-37.80566,144.977051,2016,Brunswick St/Gertrude St #13,3065
1138,bundoora,-37.7124863,145.046356,2054,Bundoora Park/Plenty Rd #61,3083
1139,bundoora,-37.69568,145.05957,2059,Bundoora Square SC/Plenty Rd #67,3083
1140,fitzroy,-37.80361,144.983383,2019,Charles St/Smith St #17,3065
1141,thornbury,-37.75945,145.000549,2020,Clarendon St/High St #38,3071
1142,northcote,-37.77669,144.997528,2021,Clarke St/High St #30,3070
1143,bundoora,-37.6813545,145.069016,2755,Clements Dr/Plenty Rd #70,3083
1144,clifton hill,-37.78565,144.994522,2042,Clifton Hill Interchange/Queens Pde #25,3068
1145,thornbury,-37.75455,145.001373,2023,Collins St/High St #41,3071
1151,thornbury,-37.76333,144.9997,2024,Darebin Rd/High St #36,3071
1152,preston,-37.74321,145.007965,2025,David St/Plenty Rd #47,3072
1153,northcote,-37.76573,144.999252,2026,Dennis St/High St #35,3070
1154,preston,-37.75198,145.002,2028,Dundas St/Plenty Rd #42,3072
1156,reservoir,-37.72913,145.017212,2030,Ethel Gr/Plenty Rd #53,3073
1157,fitzroy,-37.80624,144.9831,2074,Gertrude St/Smith St #15,3065
1158,fitzroy north,-37.78894,144.990265,2060,Gold St/Queens Pde #24,3068
1159,thornbury,-37.75836,145.000732,2007,Gooch St/High St #39,3071
1160,preston,-37.74115,145.009583,2036,Gower St/Plenty Rd #48,3072
1161,bundoora,-37.6916847,145.063141,2037,Greenhills Rd/Plenty Rd #68,3083
1162,bundoora,-37.70739,145.0522,2038,Greenwood Dr/Plenty Rd #63,3083
1163,bundoora,-37.70012,145.058182,2040,Grimshaw St/Plenty Rd #65,3083
1164,fitzroy,-37.8015747,144.983749,2043,Hodgson St/Smith St #18,3065
1165,bundoora,-37.6823158,145.068924,2022,Janefield Dr/Plenty Rd #70,3083
1166,fitzroy,-37.7990837,144.984161,2045,Johnston St/Smith St #19,3065
1167,fitzroy,-37.79669,144.984756,2070,Keele St/Smith St #20,3065
1168,melbourne,-37.8134041,144.9515,2050,La Trobe St/Spencer St #119,3003
1169,bundoora,-37.7164459,145.043243,2048,La Trobe University/Plenty Rd #60,3083
1170,reservoir,-37.72399,145.027847,2052,Loddon Ave/Plenty Rd #56,3073
1171,melbourne,-37.81531,144.952377,2053,Lonsdale St/Spencer St #120,3008
1172,thornbury,-37.75672,145.000824,2055,Mansfield St/High St #40,3071
1173,northcote,-37.76747,144.999283,2009,McCutcheon St/High St #34,3070
1175,bundoora,-37.7105331,145.048965,2017,Metropolitan Fire Brigade/Plenty Rd #62,3083
1176,clifton hill,-37.78836,144.991425,2034,Michael St/Queens Pde #24,3068
1177,thornbury,-37.75246,145.001541,2027,Miller St/High St #42,3071
1178,northcote,-37.7711334,144.998566,2061,Mitchell St/High St #32,3070
1179,bundoora,-37.7036743,145.055954,2062,Mount Cooper Dr/Plenty Rd #64,3083
1180,preston,-37.73889,145.011368,2063,Murray Rd/Plenty Rd #49,3072
1181,fitzroy,-37.80591,144.9793,2064,Napier St/Gertrude St #14,3065
1182,thornbury,-37.7596474,145.00032,3353,Normanby Ave/High St #38,3071
1183,northcote,-37.77471,144.997833,2090,Northcote Town Hall/High St #31,3070
1184,preston,-37.74688,145.005417,2065,Osborne Gr/Plenty Rd #44,3072
1185,collingwood,-37.80486,144.983353,2066,Peel St/Smith St #16,3066
1186,kingsbury,-37.71898,145.039627,2014,Preston Cemetery/Plenty Rd #59,3083
1188,preston,-37.74918,145.0037,2068,Raglan St/Plenty Rd #43,3072
1189,reservoir,-37.72269,145.030075,2039,Reservoir District Secondary College/Plenty Rd #57,3073
1190,bundoora,-37.6789856,145.0695,2058,RMIT/Plenty Rd #71,3083
1191,collingwood,-37.7967834,144.984573,2046,Rose St/Smith St #20,3066
1193,northcote,-37.7691956,144.999176,3418,Separation St/High St #33,3070
1194,bundoora,-37.69796,145.058853,2073,Settlement Rd/Plenty Rd #66,3083
1195,preston,-37.74706,145.005127,2692,Seymour St/Plenty Rd #44,3072
1196,fitzroy,-37.80626,144.982666,2033,Smith St/Gertrude St #15,3065
1197,clifton hill,-37.79047,144.986359,2075,Smith St/Queens Pde #22,3068
1202,preston,-37.73684,145.012421,2078,Sylvester Gr/Plenty Rd #50,3072
1203,bundoora,-37.68802,145.066666,2079,Taunton Dr/Plenty Rd #69,3083
1204,preston,-37.73126,145.01442,2080,Tyler St/Plenty Rd #52,3072
1205,northcote,-37.78357,144.99617,2083,Walker St/High St #26,3070
1206,clifton hill,-37.78948,144.988754,2084,Wellington St/Queens Pde #23,3068
1207,northcote,-37.7802467,144.996841,2086,Westgarth St/High St #27,3070
1208,reservoir,-37.72733,145.02,2018,Wilkinson St/Plenty Rd #54,3073
1210,preston,-37.7344666,145.01355,2088,Wood St/Plenty Rd #51,3072
1211,thornbury,-37.76153,145.000046,2089,Woolton Ave/High St #37,3071
1212,balwyn north,-37.7946472,145.084625,2830,Balwyn Rd/Doncaster Rd #51,3104
1213,hawthorn,-37.8132553,145.023254,2878,Barkers Rd/Church St #26,3122
1216,hawthorn,-37.815917999999996,145.0206,2879,Brook St/Church St #25,3122
1217,balwyn north,-37.79394,145.077728,2833,Buchanan Ave/Doncaster Rd #49,3104
1218,balwyn north,-37.79347,145.06427,3399,Burke Rd/Doncaster Rd #44,3104
1219,kew,-37.79353,145.06366,2842,Burke Rd/High St #44,3101
1221,kew,-37.80501,145.03598,2854,Charles St/High St #35,3101
1223,balwyn north,-37.79376,145.077469,2834,Cityview Rd/Doncaster Rd #49,3104
1224,kew east,-37.7974358,145.054764,2160,Clyde St/High St #41,3102
1225,kew,-37.804990000000004,145.035553,2855,Cobden St/High St #35,3101
1227,docklands,-37.8196869,144.952209,2479,D14-Southern Cross Station/Collins St,3008
1228,docklands,-37.8202629,144.950134,2489,D15-Batman's Hill/Collins St,3008
1229,docklands,-37.820797,144.948029,2696,D16-Harbour Esp/Collins St,3008
1230,docklands,-37.82153,144.945419,2490,D17-Merchant St/Collins St,3008
1231,docklands,-37.8208,144.942032,2890,D18-Bourke St/Collins St,3008
1232,balwyn north,-37.7943726,145.080933,2831,Dight Ave/Doncaster Rd #50,3104
1236,kew,-37.80354,145.040024,2852,Gladstone St/High St #36,3101
1237,hawthorn,-37.8179054,145.0186,2881,Grattan St/Church St #24,3122
1238,kew,-37.7994156,145.05043,2849,Harp Rd/High St #39,3101
1240,kew east,-37.7986336,145.052017,2847,Harp Village/High St #40,3102
1242,balwyn north,-37.79426,145.081192,2832,Hill Rd/Doncaster Rd #50,3104
1243,hawthorn,-37.8179741,145.018753,2880,Hill St/Church St #24,3122
1244,kew east,-37.7963943,145.057159,2845,Irymple Ave/High St #42,3102
1247,kew,-37.80247,145.042572,2259,Kew Cemetery/High St #37,3101
1248,kew east,-37.7946472,145.061081,2843,Kew High School/High St #43,3102
1254,balwyn north,-37.7927055,145.071442,2837,North Balwyn Shopping Centre/Doncaster Rd #47,3104
1255,balwyn north,-37.7934151,145.07457,2835,Osburn Ave/Doncaster Rd #48,3104
1256,kew,-37.8056221,145.033844,2857,Pakington St/High St #34,3101
1257,kew,-37.80349,145.039764,2853,Parkhill Rd/High St #36,3101
1264,kew east,-37.79797,145.053925,2846,Station St/High St #41,3102
1266,balwyn north,-37.7932167,145.074265,2836,Sunburst Ave/Doncaster Rd #48,3104
1267,kew,-37.8056374,145.034164,2856,Union St/High St #34,3101
1268,kew,-37.8012543,145.045975,2850,Victoria Park/High St #38,3101
1271,balwyn north,-37.7928352,145.067444,2839,Wattle Ave/Doncaster Rd #46,3104
1273,kew east,-37.79632,145.057678,2844,Woodlands Ave/High St #42,3102
1276,fitzroy,-37.79363,144.979187,2544,Alexandra Pde/Brunswick St #18,3065
1278,fitzroy north,-37.7854271,144.9819,2539,Alfred Cres/St Georges Rd #21,3068
1279,northcote,-37.7685547,144.991241,2530,Arthurton Rd/St Georges Rd #29,3070
1280,fitzroy,-37.80044,144.978043,2548,Bell St/Brunswick St #15,3065
1281,preston,-37.74408,144.989029,2518,Bell St/Gilbert Rd #40,3072
1282,northcote,-37.7624474,144.9926,2528,Bird Ave/St Georges Rd #31,3070
1283,thornbury,-37.751442,144.991318,2523,Bracken Ave/Miller St #36,3071
1284,preston,-37.74131,144.9895,2517,Bruce St/Gilbert Rd #41,3072
1285,northcote,-37.77593,144.989761,2533,Clarke St/St Georges Rd #26,3070
1286,preston,-37.73454,144.990585,2514,Cooper St/Gilbert Rd #44,3072
1287,preston,-37.7390976,144.989838,2516,Cramer St/Gilbert Rd #42,3072
1293,preston,-37.7512665,144.990952,2522,Devon St/Miller St #36,3072
1296,fitzroy north,-37.7883,144.980087,2541,Fitzroy Bowls Club/Brunswick St #20,3068
1297,northcote,-37.7626266,144.992569,2527,Gadd St/St Georges Rd #31,3070
1298,fitzroy,-37.80585,144.977112,2551,Gertrude St/Brunswick St #13,3065
1299,northcote,-37.7652931,144.991959,2529,Gladstone Ave/St Georges Rd #30,3070
1300,fitzroy,-37.8028374,144.977615,2550,Hanover St/Brunswick St #14,3065
1301,fitzroy north,-37.7800674,144.986511,2535,Holden St/St Georges Rd #24,3068
1302,thornbury,-37.75541,144.993927,2525,Hutton St/St Georges Rd #33,3071
1303,preston,-37.73299,144.990845,2512,Jacka St/Gilbert Rd #45,3072
1304,fitzroy,-37.7985268,144.978363,2546,Johnston St/Brunswick St #16,3065
1305,fitzroy,-37.8027039,144.9778,2549,King William St/Brunswick St #14,3065
1306,preston,-37.745636,144.9888,2519,Latona Ave/Gilbert Rd #39,3072
1307,fitzroy,-37.7956276,144.978851,2545,Leicester St/Brunswick St #17,3065
1308,preston,-37.7300529,144.991364,2513,McNamara St/Gilbert Rd #46,3072
1310,preston,-37.7503166,144.988037,2521,Miller St/Gilbert Rd #37,3072
1311,fitzroy north,-37.7780151,144.9883,2534,Miller St/St Georges Rd #25,3068
1312,preston,-37.7520332,144.994888,2524,Miller St/St Georges Rd #34,3072
1313,preston,-37.7367172,144.990219,2515,Murray Rd/Gilbert Rd #43,3072
1314,fitzroy north,-37.790802,144.97966,2543,Newry St/Brunswick St #19,3068
1315,thornbury,-37.75895,144.993256,2526,Normanby Ave/St Georges Rd #32,3071
1316,preston,-37.7480774,144.988373,2520,Oakover Rd/Gilbert Rd #38,3072
1317,fitzroy north,-37.7815056,144.985275,2536,Park St/St Georges Rd #23,3068
1319,fitzroy north,-37.78322,144.984024,2538,Scotchmer St/St Georges Rd #22,3068
1322,fitzroy,-37.80054,144.97818,2547,St David St/Brunswick St #15,3065
1323,preston,-37.7516441,144.9948,3343,St Georges Rd/Miller St #35,3072
1326,northcote,-37.77157,144.990631,2531,Sumner Ave/St Georges Rd #28,3070
1327,preston,-37.7291832,144.9916,2511,West Preston/Gilbert Rd #47,3072
1328,northcote,-37.77382,144.990158,2532,Westbourne Gr/St Georges Rd #27,3070
1332,south melbourne,-37.83761,144.962585,2557,130a-Raglan St/Clarendon St,3205
1333,south melbourne,-37.83894,144.963364,2558,Albert Rd/Clarendon St #130,3205
1335,middle park,-37.85307,144.962448,2569,Armstrong St/Danks St #138,3206
1338,albert park,-37.8422852,144.959518,2561,Canterbury Rd/Albert Rd #132,3206
1339,middle park,-37.84407,144.960129,2563,Canterbury Rd/Mills St #133,3206
1340,middle park,-37.8455925,144.958878,2564,Carter St/Mills St #134,3206
1343,south melbourne,-37.82722,144.95787,2552,City Rd/Clarendon St #126,3205
1344,south melbourne,-37.8395157,144.962875,2559,Clarendon St/Albert Rd #130,3205
1346,st kilda west,-37.85718,144.9705,2573,Cowderoy St/Park St #141,3182
1347,middle park,-37.8493233,144.95607,2566,Danks St/Mills St #136,3206
1348,st kilda west,-37.8574944,144.9708,2574,Deakin St/Park St #141,3182
1349,south melbourne,-37.8331566,144.960541,2554,Dorcas St/Clarendon St #128,3205
1352,st kilda,-37.86099,144.974457,2576,Fitzroy St/Park St #143,3182
1354,st kilda west,-37.855760000000004,144.967422,2572,Fraser St/Park St #140,3182
1355,middle park,-37.85543,144.967117,2571,Fraser St/Patterson St #140,3206
1356,middle park,-37.8513565,144.959183,2568,Harold St/Danks St #137,3206
1358,albert park,-37.8424454,144.959351,2562,Kerferd Rd/Canterbury Rd #132,3206
1359,middle park,-37.8547821,144.965591,2570,Langridge St/Patterson St #139,3206
1365,st kilda west,-37.85979,144.97319,2575,Mary St/Park St #142,3182
1367,albert park,-37.84069,144.961121,2560,Melbourne Sports & Aquatic Centre/Albert Rd #131,3206
1369,middle park,-37.84974,144.956085,2567,Mills St/Danks St #136,3206
1372,south melbourne,-37.835434,144.9616,2555,Park St/Clarendon St #129,3205
1375,middle park,-37.84741,144.9574,2565,Richardson St/Mills St #135,3206
1385,south melbourne,-37.8309822,144.959534,2553,York St/Clarendon St #127,3205
1386,brunswick west,-37.75856,144.944992,3085,Albion St/Melville Rd #37,3055
1387,pascoe vale south,-37.7401123,144.945587,3075,Bell St/Melville Rd #45,3044
1388,melbourne,-37.81587,144.958252,3106,Bourke St/William St #5,3000
1389,pascoe vale south,-37.74159,144.9454,3076,Brearley Pde/Melville Rd #44,3044
1390,brunswick west,-37.77554,144.948914,3222,Brunswick Rd/Grantham St #29,3055
1391,toorak,-37.8413849,145.0109,2254,Canterbury Rd/Toorak Rd #133,3142
1392,southbank,-37.8221169,144.961227,3007,Casino/Southbank/Queens Bridge St #115,3006
1393,south yarra,-37.83959,144.995758,2188,Chapel St/Toorak Rd #128,3141
1394,southbank,-37.82626,144.960587,3116,City Rd/Kings Way #116,3006
1395,melbourne,-37.81746,144.959091,3107,Collins St/William St #4,3000
1396,brunswick,-37.76959,144.944427,3089,Daly St/Dawson St #33,3056
1397,brunswick west,-37.7703,144.949738,3091,Dawson St/Grantham St #31,3055
1398,parkville,-37.7880135,144.949753,2556,Elliott Ave/Royal Park #24,3052
1399,south yarra,-37.8376236,144.9807,2253,Fawkner Park/Toorak Rd #123,3141
1400,melbourne,-37.811992599999996,144.956512,3104,Flagstaff Railway Station/William St #7,3000
1401,north melbourne,-37.80146,144.956711,3328,Flemington Rd/Peel St #12,3051
1402,melbourne,-37.8195152,144.961243,3111,Flinders St/Queens Bridge St #1,3000
1403,toorak,-37.84362,145.029816,2142,Glenbervie Rd/Toorak Rd #139,3142
1404,toorak,-37.84362,145.029984,2056,Glenferrie Rd/Toorak Rd #139,3142
1405,toorak,-37.8412323,145.01059,2183,Grange Rd/Toorak Rd #133,3142
1406,brunswick west,-37.7700539,144.949524,3092,Grantham St/Dawson St #31,3055
1407,south yarra,-37.8403664,145.002335,2186,Hawksburn Rd/Toorak Rd #130,3141
1408,brunswick west,-37.77493,144.948853,3324,Heller St/Grantham St #29,3055
1409,brunswick west,-37.76204,144.944382,3086,Hope St/Melville Rd #36,3055
1410,toorak,-37.8424644,145.020081,2180,Irving Rd/Toorak Rd #136,3142
1411,brunswick west,-37.75662,144.945374,3084,Jacobs Reserve/Melville Rd #38,3055
1412,toorak,-37.8428421,145.023071,2179,Kooyong Rd/Toorak Rd #137,3142
1413,parkville,-37.7826157,144.949219,2697,Melbourne Zoo/Royal Park #26,3052
1414,toorak,-37.8432274,145.026245,2178,Moonga Rd/Toorak Rd #138,3142
1415,brunswick west,-37.75316,144.9459,3081,Moreland Rd/Melville Rd #40,3055
1417,toorak,-37.8417549,145.014053,2182,Orrong Rd/Toorak Rd #134,3142
1418,parkville,-37.7770729,144.949814,2170,Park St/Royal Park #28,3052
1419,pascoe vale south,-37.74393,144.945,3077,Princes Tce/Melville Rd #43,3044
1420,south yarra,-37.8384171,144.98674,2191,Punt Rd/Toorak Rd #125,3141
1421,north melbourne,-37.8072166,144.95575,3101,Queen Victoria Market/39 Peel St #9,3051
1422,north melbourne,-37.80744,144.95578,2267,Queen Victoria Market/Peel St #9,3051
1423,north melbourne,-37.8036232,144.956436,3329,Queensberry St/Peel St #11,3051
1424,pascoe vale south,-37.7464,144.944565,3078,Reynard St/Melville Rd #42,3044
1428,parkville,-37.78075,144.951355,2146,Royal Park Station/Royal Park #27,3052
1429,brunswick west,-37.76761,144.943085,3088,Smith St/Melville Rd #34,3055
1431,brunswick west,-37.7694,144.944168,3194,South Daly St/Dawson St #33,3055
1432,south yarra,-37.8391266,144.992172,2189,South Yarra Railway Station/Toorak Rd #127,3141
1433,parkville,-37.7845345,144.948853,3097,State Netball Hockey Centre/Royal Park #25,3052
1434,southbank,-37.83054,144.965,3118,Sturt St/Kings Way #118,3006
1435,south yarra,-37.8399277,144.998672,2187,Tivoli Rd/Toorak Rd #129,3141
1437,toorak,-37.841095,145.008453,2184,Toorak Village/Toorak Rd #132,3142
1438,brunswick west,-37.77226,144.949539,3093,Union Square Shopping Centre/Grantham St #30,3055
1439,brunswick west,-37.76471,144.9439,3087,Victoria St/Melville Rd #35,3055
1440,west melbourne,-37.80539,144.956024,3100,Victoria St/Peel St #10,3003
1441,south yarra,-37.83819,144.984558,2192,Walsh St/Toorak Rd #124,3141
1442,south melbourne,-37.8328,144.969818,3119,Wells St/Park St #119,3205
1443,toorak,-37.8407249,145.005356,2242,Williams Rd/Toorak Rd #131,3142
1445,pascoe vale south,-37.74932,144.946548,3079,Woodlands Ave/Melville Rd #41,3044
1446,toorak,-37.8421669,145.0176,2181,Woorigoleen Rd/Toorak Rd #135,3142
1447,south melbourne,-37.8297653,144.964233,3117,York St/Kings Way #117,3205
1448,prahran,-37.8538628,145.008652,2635,Airlie Ave/High St #37,3181
1452,armadale,-37.85512,145.01825,2631,Armadale Station/High St #40,3143
1455,armadale,-37.8546829,145.014969,2633,Auburn Gr/High St #39,3143
1456,coburg,-37.75621,144.970154,2234,Barrow St/Moreland Rd #130,3058
1458,glen iris,-37.8589439,145.048264,2618,Belmont Ave/High St #50,3146
1461,glen iris,-37.85961,145.053787,2616,Boyanda Rd/High St #52,3146
1463,glen iris,-37.85931,145.051208,2617,Burke Rd/High St #51,3146
1464,prahran,-37.851757,144.99321,2644,Chapel St/High St #31,3181
1465,prahran,-37.8535538,145.006271,2636,Chatsworth Rd/High St #36,3181
1469,coburg,-37.75581,144.966522,2235,De Carle St/Moreland Rd #131,3058
1470,malvern,-37.85694,145.032379,2626,De La Salle College/High St #45,3144
1471,malvern,-37.8576965,145.03801,2624,Dixon St/High St #47,3144
1474,malvern,-37.8573875,145.035614,2625,Fraser St/High St #46,3144
1475,malvern,-37.8565369,145.02916,2627,Glenferrie Rd/High St #44,3144
1478,glen iris,-37.8584557,145.044189,2620,Harold Holt Swim Centre/High St #49,3146
1480,prahran,-37.8522,144.996429,2642,Hornby St/High St #32,3181
1481,armadale,-37.85583,145.023666,2629,Huntingtower Rd/High St #42,3143
1482,armadale,-37.85542,145.020584,2630,Kooyong Rd/High St #41,3143
1485,prahran,-37.85265,144.9997,2639,Lewisham Rd/High St #34,3181
1490,glen iris,-37.8599968,145.056335,2300,Malvern Rd/High St #53,3146
1494,armadale,-37.85612,145.02594,2628,Mercer Rd/High St #43,3143
1497,coburg,-37.7552948,144.962128,2781,Moreland Station/Cameron St #133,3058
1498,coburg,-37.7552643,144.962372,2237,Moreland Station/Moreland Rd #133,3058
1500,prahran,-37.8542175,145.011459,2976,Orrong Rd/High St #38,3181
1503,prahran,-37.85105,144.987732,2977,Perth St/High St #29,3181
1506,windsor,-37.851387,144.98930000000001,2645,Prahran Station/High St #30,3181
1509,prahran,-37.850563,144.984039,2978,Punt Rd/High St #28,3181
1516,coburg,-37.75556,144.964279,2236,Sydney Rd/Moreland Rd #132,3058
1517,prahran,-37.85244,144.9981,2640,The Avenue/High St #33,3181
1519,glen iris,-37.858078,145.041046,2622,Tooronga Rd/High St #48,3146
1522,prahran,-37.85301,145.002319,2638,Williams Rd/High St #35,3181
