[
{"disruption_ids": [], "stop_suburb": "Ararat", "route_type": 3, "stop_latitude": -37.28244, "stop_longitude": 142.9369, "stop_sequence": 0, "stop_ticket": {"ticket_type": "", "zone": "Regional", "is_free_fare_zone": false, "ticket_machine": false, "ticket_checks": false, "vline_reservation": true, "ticket_zones": []}, "stop_id": 1501, "stop_name": "Ararat Railway Station", "stop_landmark": "Ararat Railway Station"},
{"disruption_ids": [], "stop_suburb": "Ararat", "route_type": 3, "stop_latitude": -37.28364, "stop_longitude": 142.931992, "stop_sequence": 0, "stop_ticket": null, "stop_id": 26759, "stop_name": "Ararat Town Hall/Barkly St", "stop_landmark": "Ararat Town Hall"},
{"disruption_ids": [], "stop_suburb": "Macarthur", "route_type": 3, "stop_latitude": -38.0330124, "stop_longitude": 141.999741, "stop_sequence": 0, "stop_ticket": null, "stop_id": 21122, "stop_name": "Eversley St/Hamilton - Port Fairy Rd", "stop_landmark": ""},
{"disruption_ids": [], "stop_suburb": "Hamilton", "route_type": 3, "stop_latitude": -37.7466, "stop_longitude": 142.028275, "stop_sequence": 0, "stop_ticket": {"ticket_type": "", "zone": "Regional", "is_free_fare_zone": false, "ticket_machine": false, "ticket_checks": false, "vline_reservation": false, "ticket_zones": []}, "stop_id": 4125, "stop_name": "Hamilton Station/Station St", "stop_landmark": "Hamilton Station"},
{"disruption_ids": [], "stop_suburb": "Dunkeld", "route_type": 3, "stop_latitude": -37.6494637, "stop_longitude": 142.34256, "stop_sequence": 0, "stop_ticket": {"ticket_type": "", "zone": "Regional", "is_free_fare_zone": false, "ticket_machine": false, "ticket_checks": false, "vline_reservation": false, "ticket_zones": []}, "stop_id": 4130, "stop_name": "Information Centre/Glenelg Hwy", "stop_landmark": "Information Centre"},
{"disruption_ids": [], "stop_suburb": "Halls Gap", "route_type": 3, "stop_latitude": -37.14062, "stop_longitude": 142.518982, "stop_sequence": 0, "stop_ticket": {"ticket_type": "", "zone": "Regional", "is_free_fare_zone": false, "ticket_machine": false, "ticket_checks": false, "vline_reservation": false, "ticket_zones": []}, "stop_id": 4539, "stop_name": "Information Centre/Grampians Rd", "stop_landmark": "Information Centre"},
{"disruption_ids": [], "stop_suburb": "Pomonal", "route_type": 3, "stop_latitude": -37.1916771, "stop_longitude": 142.609039, "stop_sequence": 0, "stop_ticket": null, "stop_id": 26150, "stop_name": "Lake Fyans Tourist Rd/Ararat - Pomonal Rd", "stop_landmark": ""},
{"disruption_ids": [], "stop_suburb": "Warrnambool", "route_type": 3, "stop_latitude": -38.3823776, "stop_longitude": 142.4859, "stop_sequence": 0, "stop_ticket": null, "stop_id": 18178, "stop_name": "Lava Street Interchange/Lava St", "stop_landmark": "Lava Street Interchange"},
{"disruption_ids": [], "stop_suburb": "Moyston", "route_type": 3, "stop_latitude": -37.3008, "stop_longitude": 142.765549, "stop_sequence": 0, "stop_ticket": null, "stop_id": 26317, "stop_name": "Moyston - Dunkeld Rd/Ararat - Pomonal Rd", "stop_landmark": ""},
{"disruption_ids": [], "stop_suburb": "Byaduk", "route_type": 3, "stop_latitude": -37.94686, "stop_longitude": 141.952377, "stop_sequence": 0, "stop_ticket": null, "stop_id": 21861, "stop_name": "Pearses Rd/Hamilton - Port Fairy Rd", "stop_landmark": ""},
{"disruption_ids": [], "stop_suburb": "Port Fairy", "route_type": 3, "stop_latitude": -38.38352, "stop_longitude": 142.239044, "stop_sequence": 0, "stop_ticket": {"ticket_type": "", "zone": "Regional", "is_free_fare_zone": false, "ticket_machine": false, "ticket_checks": false, "vline_reservation": false, "ticket_zones": []}, "stop_id": 4156, "stop_name": "Port Fairy Visitor Centre/Bank St", "stop_landmark": "Port Fairy Visitor Centre"},
{"disruption_ids": [], "stop_suburb": "Melbourne City", "route_type": 3, "stop_latitude": -37.8150864, "stop_longitude": 144.951157, "stop_sequence": 0, "stop_ticket": {"ticket_type": "", "zone": "Regional,Zone 1", "is_free_fare_zone": false, "ticket_machine": false, "ticket_checks": false, "vline_reservation": true, "ticket_zones": [1]}, "stop_id": 4529, "stop_name": "Southern Cross Coach Terminal/Spencer St", "stop_landmark": "Southern Cross Coach Terminal"},
{"disruption_ids": [], "stop_suburb": "Melbourne City", "route_type": 3, "stop_latitude": -37.8183327, "stop_longitude": 144.95253, "stop_sequence": 0, "stop_ticket": {"ticket_type": "", "zone": "Regional,Zone 1", "is_free_fare_zone": false, "ticket_machine": true, "ticket_checks": true, "vline_reservation": true, "ticket_zones": [1]}, "stop_id": 1181, "stop_name": "Southern Cross Railway Station", "stop_landmark": ""},
{"disruption_ids": [], "stop_suburb": "Warrnambool", "route_type": 3, "stop_latitude": -38.3851128, "stop_longitude": 142.4757, "stop_sequence": 0, "stop_ticket": {"ticket_type": "", "zone": "Regional", "is_free_fare_zone": false, "ticket_machine": false, "ticket_checks": false, "vline_reservation": false, "ticket_zones": []}, "stop_id": 4103, "stop_name": "Warrnambool Station/Merri St", "stop_landmark": "Warrnambool Station"},
{"disruption_ids": [], "stop_suburb": "Byaduk North", "route_type": 3, "stop_latitude": -37.8942757, "stop_longitude": 141.954437, "stop_sequence": 0, "stop_ticket": null, "stop_id": 23376, "stop_name": "White St/Hamilton - Port Fairy Rd", "stop_landmark": ""},
{"disruption_ids": [], "stop_suburb": "Albury (NSW)", "route_type": 3, "stop_latitude": -36.0842438, "stop_longitude": 146.924332, "stop_sequence": 0, "stop_ticket": {"ticket_type": "", "zone": "Regional", "is_free_fare_zone": false, "ticket_machine": false, "ticket_checks": false, "vline_reservation": false, "ticket_zones": []}, "stop_id": 1500, "stop_name": "Albury Railway Station", "stop_landmark": "Albury Railway Station"},
{"disruption_ids": [], "stop_suburb": "Avenel", "route_type": 3, "stop_latitude": -36.8936424, "stop_longitude": 145.229523, "stop_sequence": 0, "stop_ticket": {"ticket_type": "", "zone": "Regional", "is_free_fare_zone": false, "ticket_machine": false, "ticket_checks": false, "vline_reservation": false, "ticket_zones": []}, "stop_id": 1502, "stop_name": "Avenel Railway Station", "stop_landmark": "Avenel Railway Station"},
{"disruption_ids": [], "stop_suburb": "Benalla", "route_type": 3, "stop_latitude": -36.54482, "stop_longitude": 145.984009, "stop_sequence": 0, "stop_ticket": {"ticket_type": "", "zone": "Regional", "is_free_fare_zone": false, "ticket_machine": false, "ticket_checks": false, "vline_reservation": true, "ticket_zones": []}, "stop_id": 1508, "stop_name": "Benalla Railway Station", "stop_landmark": "Benalla Railway Station"},
{"disruption_ids": [], "stop_suburb": "Broadford", "route_type": 3, "stop_latitude": -37.20726, "stop_longitude": 145.042877, "stop_sequence": 0, "stop_ticket": {"ticket_type": "", "zone": null, "is_free_fare_zone": false, "ticket_machine": false, "ticket_checks": false, "vline_reservation": true, "ticket_zones": null}, "stop_id": 1511, "stop_name": "Broadford Railway Station", "stop_landmark": "Broadford Railway Station"},
{"disruption_ids": [], "stop_suburb": "Broadmeadows", "route_type": 3, "stop_latitude": -37.6830521, "stop_longitude": 144.919617, "stop_sequence": 0, "stop_ticket": {"ticket_type": "", "zone": "Regional,Zone 2", "is_free_fare_zone": false, "ticket_machine": false, "ticket_checks": false, "vline_reservation": false, "ticket_zones": [2]}, "stop_id": 1028, "stop_name": "Broadmeadows Railway Station", "stop_landmark": ""},
{"disruption_ids": [], "stop_suburb": "Chiltern", "route_type": 3, "stop_latitude": -36.1556358, "stop_longitude": 146.611374, "stop_sequence": 0, "stop_ticket": {"ticket_type": "", "zone": "Regional", "is_free_fare_zone": false, "ticket_machine": false, "ticket_checks": false, "vline_reservation": false, "ticket_zones": []}, "stop_id": 1515, "stop_name": "Chiltern Railway Station", "stop_landmark": "Chiltern Railway Station"},
{"disruption_ids": [], "stop_suburb": "Craigieburn", "route_type": 3, "stop_latitude": -37.6019249, "stop_longitude": 144.943314, "stop_sequence": 0, "stop_ticket": {"ticket_type": "", "zone": "Regional,Zone 2", "is_free_fare_zone": false, "ticket_machine": false, "ticket_checks": false, "vline_reservation": false, "ticket_zones": [2]}, "stop_id": 1044, "stop_name": "Craigieburn Railway Station", "stop_landmark": "Craigieburn Railway Station"},
{"disruption_ids": [], "stop_suburb": "Donnybrook", "route_type": 3, "stop_latitude": -37.542572, "stop_longitude": 144.969543, "stop_sequence": 0, "stop_ticket": {"ticket_type": "", "zone": "Zone 2", "is_free_fare_zone": false, "ticket_machine": true, "ticket_checks": true, "vline_reservation": false, "ticket_zones": [2]}, "stop_id": 1520, "stop_name": "Donnybrook Railway Station", "stop_landmark": "Donnybrook Railway Station"},
{"disruption_ids": [], "stop_suburb": "Essendon", "route_type": 3, "stop_latitude": -37.75601, "stop_longitude": 144.9162, "stop_sequence": 0, "stop_ticket": {"ticket_type": "", "zone": "Regional,Zone 1", "is_free_fare_zone": false, "ticket_machine": false, "ticket_checks": false, "vline_reservation": false, "ticket_zones": [1]}, "stop_id": 1064, "stop_name": "Essendon Railway Station", "stop_landmark": ""},
{"disruption_ids": [], "stop_suburb": "Euroa", "route_type": 3, "stop_latitude": -36.7491341, "stop_longitude": 145.568085, "stop_sequence": 0, "stop_ticket": {"ticket_type": "", "zone": "Regional", "is_free_fare_zone": false, "ticket_machine": false, "ticket_checks": false, "vline_reservation": false, "ticket_zones": []}, "stop_id": 1525, "stop_name": "Euroa Railway Station", "stop_landmark": ""},
{"disruption_ids": [], "stop_suburb": "Euroa", "route_type": 3, "stop_latitude": -36.7494, "stop_longitude": 145.56842, "stop_sequence": 0, "stop_ticket": {"ticket_type": "", "zone": "Regional,Zone 12", "is_free_fare_zone": false, "ticket_machine": false, "ticket_checks": false, "vline_reservation": false, "ticket_zones": [12]}, "stop_id": 4576, "stop_name": "Euroa Station/Railway St", "stop_landmark": "Euroa Station"},
{"disruption_ids": [], "stop_suburb": "Heathcote Junction", "route_type": 3, "stop_latitude": -37.3717079, "stop_longitude": 145.0282, "stop_sequence": 0, "stop_ticket": {"ticket_type": "", "zone": "Zone 2", "is_free_fare_zone": false, "ticket_machine": true, "ticket_checks": true, "vline_reservation": false, "ticket_zones": [2]}, "stop_id": 1529, "stop_name": "Heathcote Junction Railway Station", "stop_landmark": "Heathcote Junction Railway Station"},
{"disruption_ids": [], "stop_suburb": "Kilmore East", "route_type": 3, "stop_latitude": -37.29321, "stop_longitude": 144.983566, "stop_sequence": 0, "stop_ticket": {"ticket_type": "", "zone": "Regional,Zone 3,Zone 4", "is_free_fare_zone": false, "ticket_machine": false, "ticket_checks": true, "vline_reservation": true, "ticket_zones": [3, 4]}, "stop_id": 1532, "stop_name": "Kilmore East Railway Station", "stop_landmark": "Kilmore East Railway Station"},
{"disruption_ids": [], "stop_suburb": "Wangaratta", "route_type": 3, "stop_latitude": -36.3533478, "stop_longitude": 146.324753, "stop_sequence": 0, "stop_ticket": {"ticket_type": "", "zone": "Regional", "is_free_fare_zone": false, "ticket_machine": false, "ticket_checks": false, "vline_reservation": false, "ticket_zones": []}, "stop_id": 4532, "stop_name": "King George Gardens/Rowan St", "stop_landmark": "King George Gardens"},
{"disruption_ids": [], "stop_suburb": "West Melbourne", "route_type": 3, "stop_latitude": -37.80631, "stop_longitude": 144.941513, "stop_sequence": 0, "stop_ticket": {"ticket_type": "", "zone": "Zone 1", "is_free_fare_zone": false, "ticket_machine": false, "ticket_checks": false, "vline_reservation": false, "ticket_zones": [1]}, "stop_id": 1144, "stop_name": "North Melbourne Railway Station", "stop_landmark": "North Melbourne Railway Station"},
{"disruption_ids": [], "stop_suburb": "Wangaratta", "route_type": 3, "stop_latitude": -36.3535, "stop_longitude": 146.3246, "stop_sequence": 0, "stop_ticket": {"ticket_type": "", "zone": "Regional", "is_free_fare_zone": false, "ticket_machine": false, "ticket_checks": false, "vline_reservation": false, "ticket_zones": []}, "stop_id": 23745, "stop_name": "Ovens St/Rowan St", "stop_landmark": ""},
{"disruption_ids": [], "stop_suburb": "Seymour", "route_type": 3, "stop_latitude": -37.02529, "stop_longitude": 145.137436, "stop_sequence": 0, "stop_ticket": {"ticket_type": "", "zone": "Regional,Zone 6,Zone 7", "is_free_fare_zone": false, "ticket_machine": false, "ticket_checks": false, "vline_reservation": true, "ticket_zones": [6, 7]}, "stop_id": 1554, "stop_name": "Seymour Railway Station", "stop_landmark": "Seymour Railway Station"},
{"disruption_ids": [], "stop_suburb": "Melbourne City", "route_type": 3, "stop_latitude": -37.8150864, "stop_longitude": 144.951157, "stop_sequence": 0, "stop_ticket": {"ticket_type": "", "zone": "Regional,Zone 1", "is_free_fare_zone": false, "ticket_machine": false, "ticket_checks": false, "vline_reservation": true, "ticket_zones": [1]}, "stop_id": 4529, "stop_name": "Southern Cross Coach Terminal/Spencer St", "stop_landmark": "Southern Cross Coach Terminal"},
{"disruption_ids": [], "stop_suburb": "Melbourne City", "route_type": 3, "stop_latitude": -37.8183327, "stop_longitude": 144.95253, "stop_sequence": 0, "stop_ticket": {"ticket_type": "", "zone": "Regional,Zone 1", "is_free_fare_zone": false, "ticket_machine": true, "ticket_checks": true, "vline_reservation": true, "ticket_zones": [1]}, "stop_id": 1181, "stop_name": "Southern Cross Railway Station", "stop_landmark": ""},
{"disruption_ids": [], "stop_suburb": "Springhurst", "route_type": 3, "stop_latitude": -36.185894, "stop_longitude": 146.470428, "stop_sequence": 0, "stop_ticket": {"ticket_type": "", "zone": "Regional", "is_free_fare_zone": false, "ticket_machine": false, "ticket_checks": false, "vline_reservation": false, "ticket_zones": []}, "stop_id": 1557, "stop_name": "Springhurst Railway Station", "stop_landmark": ""},
{"disruption_ids": [], "stop_suburb": "Tallarook", "route_type": 3, "stop_latitude": -37.09233, "stop_longitude": 145.103, "stop_sequence": 0, "stop_ticket": {"ticket_type": "", "zone": "Regional,Zone 5,Zone 6", "is_free_fare_zone": false, "ticket_machine": false, "ticket_checks": true, "vline_reservation": false, "ticket_zones": [5, 6]}, "stop_id": 1560, "stop_name": "Tallarook Railway Station", "stop_landmark": "Tallarook Railway Station"},
{"disruption_ids": [], "stop_suburb": "Violet Town", "route_type": 3, "stop_latitude": -36.6388168, "stop_longitude": 145.715927, "stop_sequence": 0, "stop_ticket": {"ticket_type": "", "zone": "Regional", "is_free_fare_zone": false, "ticket_machine": false, "ticket_checks": false, "vline_reservation": false, "ticket_zones": []}, "stop_id": 1565, "stop_name": "Violet Town Railway Station", "stop_landmark": "Violet Town Railway Station"},
{"disruption_ids": [], "stop_suburb": "Wallan", "route_type": 3, "stop_latitude": -37.41686, "stop_longitude": 145.005371, "stop_sequence": 0, "stop_ticket": {"ticket_type": "", "zone": "Zone 2", "is_free_fare_zone": false, "ticket_machine": false, "ticket_checks": true, "vline_reservation": false, "ticket_zones": [2]}, "stop_id": 1574, "stop_name": "Wallan Railway Station", "stop_landmark": "Wallan Station"},
{"disruption_ids": [], "stop_suburb": "Wandong", "route_type": 3, "stop_latitude": -37.3546753, "stop_longitude": 145.026413, "stop_sequence": 0, "stop_ticket": {"ticket_type": "", "zone": "Zone 2", "is_free_fare_zone": false, "ticket_machine": true, "ticket_checks": true, "vline_reservation": false, "ticket_zones": [2]}, "stop_id": 1566, "stop_name": "Wandong Railway Station", "stop_landmark": "Wandong Railway Station"},
{"disruption_ids": [], "stop_suburb": "Wangaratta", "route_type": 3, "stop_latitude": -36.3550644, "stop_longitude": 146.317169, "stop_sequence": 0, "stop_ticket": {"ticket_type": "", "zone": "Regional", "is_free_fare_zone": false, "ticket_machine": false, "ticket_checks": false, "vline_reservation": true, "ticket_zones": []}, "stop_id": 1567, "stop_name": "Wangaratta Railway Station", "stop_landmark": "Wangaratta Railway Station"},
{"disruption_ids": [], "stop_suburb": "Wodonga", "route_type": 3, "stop_latitude": -36.12004, "stop_longitude": 146.885635, "stop_sequence": 0, "stop_ticket": {"ticket_type": "", "zone": "Regional", "is_free_fare_zone": false, "ticket_machine": false, "ticket_checks": false, "vline_reservation": false, "ticket_zones": []}, "stop_id": 4582, "stop_name": "Wodonga CBD/Elgin Bvd", "stop_landmark": "Wodonga CBD"},
{"disruption_ids": [], "stop_suburb": "Wodonga", "route_type": 3, "stop_latitude": -36.1051559, "stop_longitude": 146.8712, "stop_sequence": 0, "stop_ticket": {"ticket_type": "", "zone": "Regional", "is_free_fare_zone": false, "ticket_machine": false, "ticket_checks": false, "vline_reservation": true, "ticket_zones": []}, "stop_id": 1571, "stop_name": "Wodonga Railway Station", "stop_landmark": "Wodonga Railway Station"},
{"disruption_ids": [], "stop_suburb": "West Wodonga", "route_type": 3, "stop_latitude": -36.10956, "stop_longitude": 146.855423, "stop_sequence": 0, "stop_ticket": {"ticket_type": "", "zone": "Regional", "is_free_fare_zone": false, "ticket_machine": false, "ticket_checks": false, "vline_reservation": false, "ticket_zones": []}, "stop_id": 29462, "stop_name": "Wodonga TAFE/87 McKoy St", "stop_landmark": "Wodonga TAFE"},
{"disruption_ids": [], "stop_suburb": "Puckapunyal", "route_type": 3, "stop_latitude": -36.9866333, "stop_longitude": 145.035553, "stop_sequence": 0, "stop_ticket": null, "stop_id": 27458, "stop_name": "Bridges Barracks/Morobe Rd", "stop_landmark": "Bridges Barracks"},
{"disruption_ids": [], "stop_suburb": "Broadford", "route_type": 3, "stop_latitude": -37.20726, "stop_longitude": 145.042877, "stop_sequence": 0, "stop_ticket": {"ticket_type": "", "zone": null, "is_free_fare_zone": false, "ticket_machine": false, "ticket_checks": false, "vline_reservation": true, "ticket_zones": null}, "stop_id": 1511, "stop_name": "Broadford Railway Station", "stop_landmark": "Broadford Railway Station"},
{"disruption_ids": [], "stop_suburb": "Broadmeadows", "route_type": 3, "stop_latitude": -37.6830521, "stop_longitude": 144.919617, "stop_sequence": 0, "stop_ticket": {"ticket_type": "", "zone": "Regional,Zone 2", "is_free_fare_zone": false, "ticket_machine": false, "ticket_checks": false, "vline_reservation": false, "ticket_zones": [2]}, "stop_id": 1028, "stop_name": "Broadmeadows Railway Station", "stop_landmark": ""},
{"disruption_ids": [], "stop_suburb": "Craigieburn", "route_type": 3, "stop_latitude": -37.6019249, "stop_longitude": 144.943314, "stop_sequence": 0, "stop_ticket": {"ticket_type": "", "zone": "Regional,Zone 2", "is_free_fare_zone": false, "ticket_machine": false, "ticket_checks": false, "vline_reservation": false, "ticket_zones": [2]}, "stop_id": 1044, "stop_name": "Craigieburn Railway Station", "stop_landmark": "Craigieburn Railway Station"},
{"disruption_ids": [], "stop_suburb": "Donnybrook", "route_type": 3, "stop_latitude": -37.542572, "stop_longitude": 144.969543, "stop_sequence": 0, "stop_ticket": {"ticket_type": "", "zone": "Zone 2", "is_free_fare_zone": false, "ticket_machine": true, "ticket_checks": true, "vline_reservation": false, "ticket_zones": [2]}, "stop_id": 1520, "stop_name": "Donnybrook Railway Station", "stop_landmark": "Donnybrook Railway Station"},
{"disruption_ids": [], "stop_suburb": "Essendon", "route_type": 3, "stop_latitude": -37.75601, "stop_longitude": 144.9162, "stop_sequence": 0, "stop_ticket": {"ticket_type": "", "zone": "Regional,Zone 1", "is_free_fare_zone": false, "ticket_machine": false, "ticket_checks": false, "vline_reservation": false, "ticket_zones": [1]}, "stop_id": 1064, "stop_name": "Essendon Railway Station", "stop_landmark": ""},
{"disruption_ids": [], "stop_suburb": "Puckapunyal", "route_type": 3, "stop_latitude": -37.0013351, "stop_longitude": 145.039383, "stop_sequence": 0, "stop_ticket": null, "stop_id": 14238, "stop_name": "Family Store/Malaya Rd", "stop_landmark": "Family Store"},
{"disruption_ids": [], "stop_suburb": "Wallan", "route_type": 3, "stop_latitude": -37.414505, "stop_longitude": 144.979111, "stop_sequence": 0, "stop_ticket": {"ticket_type": "", "zone": "Zone 2", "is_free_fare_zone": false, "ticket_machine": false, "ticket_checks": false, "vline_reservation": false, "ticket_zones": [2]}, "stop_id": 4327, "stop_name": "Hadfield Park/High St", "stop_landmark": "Hadfield Park"},
{"disruption_ids": [], "stop_suburb": "Heathcote Junction", "route_type": 3, "stop_latitude": -37.3717079, "stop_longitude": 145.0282, "stop_sequence": 0, "stop_ticket": {"ticket_type": "", "zone": "Zone 2", "is_free_fare_zone": false, "ticket_machine": true, "ticket_checks": true, "vline_reservation": false, "ticket_zones": [2]}, "stop_id": 1529, "stop_name": "Heathcote Junction Railway Station", "stop_landmark": "Heathcote Junction Railway Station"},
{"disruption_ids": [], "stop_suburb": "Kilmore", "route_type": 3, "stop_latitude": -37.2949562, "stop_longitude": 144.9517, "stop_sequence": 0, "stop_ticket": {"ticket_type": "", "zone": "Regional,Zone 3", "is_free_fare_zone": false, "ticket_machine": false, "ticket_checks": false, "vline_reservation": false, "ticket_zones": [3]}, "stop_id": 4306, "stop_name": "Hudson Park/Sydney St", "stop_landmark": "Hudson Park"},
{"disruption_ids": [], "stop_suburb": "Kilmore East", "route_type": 3, "stop_latitude": -37.29321, "stop_longitude": 144.983566, "stop_sequence": 0, "stop_ticket": {"ticket_type": "", "zone": "Regional,Zone 3,Zone 4", "is_free_fare_zone": false, "ticket_machine": false, "ticket_checks": true, "vline_reservation": true, "ticket_zones": [3, 4]}, "stop_id": 1532, "stop_name": "Kilmore East Railway Station", "stop_landmark": "Kilmore East Railway Station"},
{"disruption_ids": [], "stop_suburb": "West Melbourne", "route_type": 3, "stop_latitude": -37.80631, "stop_longitude": 144.941513, "stop_sequence": 0, "stop_ticket": {"ticket_type": "", "zone": "Zone 1", "is_free_fare_zone": false, "ticket_machine": false, "ticket_checks": false, "vline_reservation": false, "ticket_zones": [1]}, "stop_id": 1144, "stop_name": "North Melbourne Railway Station", "stop_landmark": "North Melbourne Railway Station"},
{"disruption_ids": [], "stop_suburb": "Seymour", "route_type": 3, "stop_latitude": -37.02529, "stop_longitude": 145.137436, "stop_sequence": 0, "stop_ticket": {"ticket_type": "", "zone": "Regional,Zone 6,Zone 7", "is_free_fare_zone": false, "ticket_machine": false, "ticket_checks": false, "vline_reservation": true, "ticket_zones": [6, 7]}, "stop_id": 1554, "stop_name": "Seymour Railway Station", "stop_landmark": "Seymour Railway Station"},
{"disruption_ids": [], "stop_suburb": "Melbourne City", "route_type": 3, "stop_latitude": -37.8150864, "stop_longitude": 144.951157, "stop_sequence": 0, "stop_ticket": {"ticket_type": "", "zone": "Regional,Zone 1", "is_free_fare_zone": false, "ticket_machine": false, "ticket_checks": false, "vline_reservation": true, "ticket_zones": [1]}, "stop_id": 4529, "stop_name": "Southern Cross Coach Terminal/Spencer St", "stop_landmark": "Southern Cross Coach Terminal"},
{"disruption_ids": [], "stop_suburb": "Melbourne City", "route_type": 3, "stop_latitude": -37.8183327, "stop_longitude": 144.95253, "stop_sequence": 0, "stop_ticket": {"ticket_type": "", "zone": "Regional,Zone 1", "is_free_fare_zone": false, "ticket_machine": true, "ticket_checks": true, "vline_reservation": true, "ticket_zones": [1]}, "stop_id": 1181, "stop_name": "Southern Cross Railway Station", "stop_landmark": ""},
{"disruption_ids": [], "stop_suburb": "Tallarook", "route_type": 3, "stop_latitude": -37.09233, "stop_longitude": 145.103, "stop_sequence": 0, "stop_ticket": {"ticket_type": "", "zone": "Regional,Zone 5,Zone 6", "is_free_fare_zone": false, "ticket_machine": false, "ticket_checks": true, "vline_reservation": false, "ticket_zones": [5, 6]}, "stop_id": 1560, "stop_name": "Tallarook Railway Station", "stop_landmark": "Tallarook Railway Station"},
{"disruption_ids": [], "stop_suburb": "Wallan", "route_type": 3, "stop_latitude": -37.41686, "stop_longitude": 145.005371, "stop_sequence": 0, "stop_ticket": {"ticket_type": "", "zone": "Zone 2", "is_free_fare_zone": false, "ticket_machine": false, "ticket_checks": true, "vline_reservation": false, "ticket_zones": [2]}, "stop_id": 1574, "stop_name": "Wallan Railway Station", "stop_landmark": "Wallan Station"},
{"disruption_ids": [], "stop_suburb": "Wandong", "route_type": 3, "stop_latitude": -37.3546753, "stop_longitude": 145.026413, "stop_sequence": 0, "stop_ticket": {"ticket_type": "", "zone": "Zone 2", "is_free_fare_zone": false, "ticket_machine": true, "ticket_checks": true, "vline_reservation": false, "ticket_zones": [2]}, "stop_id": 1566, "stop_name": "Wandong Railway Station", "stop_landmark": "Wandong Railway Station"},
{"disruption_ids": [], "stop_suburb": "Narooma (NSW)", "route_type": 3, "stop_latitude": -36.21946, "stop_longitude": 150.132584, "stop_sequence": 0, "stop_ticket": {"ticket_type": "", "zone": "Regional", "is_free_fare_zone": false, "ticket_machine": false, "ticket_checks": false, "vline_reservation": false, "ticket_zones": []}, "stop_id": 4283, "stop_name": "ANZ Bank/Wagonga St", "stop_landmark": "ANZ Bank"},
{"disruption_ids": [], "stop_suburb": "Moruya (NSW)", "route_type": 3, "stop_latitude": -35.9116173, "stop_longitude": 150.080338, "stop_sequence": 0, "stop_ticket": {"ticket_type": "", "zone": "Regional", "is_free_fare_zone": false, "ticket_machine": false, "ticket_checks": false, "vline_reservation": false, "ticket_zones": []}, "stop_id": 4287, "stop_name": "Apex Park/Princes Hwy", "stop_landmark": "Apex Park"},
{"disruption_ids": [], "stop_suburb": "Bairnsdale", "route_type": 3, "stop_latitude": -37.82846, "stop_longitude": 147.627411, "stop_sequence": 0, "stop_ticket": {"ticket_type": "", "zone": "Regional", "is_free_fare_zone": false, "ticket_machine": false, "ticket_checks": false, "vline_reservation": true, "ticket_zones": []}, "stop_id": 1504, "stop_name": "Bairnsdale Railway Station", "stop_landmark": "Bairnsdale Railway Station"},
{"disruption_ids": [], "stop_suburb": "Bairnsdale", "route_type": 3, "stop_latitude": -37.8284035, "stop_longitude": 147.6274, "stop_sequence": 0, "stop_ticket": null, "stop_id": 4107, "stop_name": "Bairnsdale Railway Station/MacLeod St", "stop_landmark": "Bairnsdale Railway Station"},
{"disruption_ids": [], "stop_suburb": "Bemm River", "route_type": 3, "stop_latitude": -37.6724167, "stop_longitude": 148.7942, "stop_sequence": 0, "stop_ticket": {"ticket_type": "", "zone": "Regional", "is_free_fare_zone": false, "ticket_machine": false, "ticket_checks": false, "vline_reservation": false, "ticket_zones": []}, "stop_id": 3336, "stop_name": "Bemm River Rd/Princes Hwy", "stop_landmark": ""},
{"disruption_ids": [], "stop_suburb": "Mallacoota", "route_type": 3, "stop_latitude": -37.5575829, "stop_longitude": 149.7577, "stop_sequence": 0, "stop_ticket": {"ticket_type": "", "zone": "Regional", "is_free_fare_zone": false, "ticket_machine": false, "ticket_checks": false, "vline_reservation": false, "ticket_zones": []}, "stop_id": 4503, "stop_name": "Bendigo Bank/Maurice Ave", "stop_landmark": "Bendigo Bank"},
{"disruption_ids": [], "stop_suburb": "Pambula (NSW)", "route_type": 3, "stop_latitude": -36.9305077, "stop_longitude": 149.875214, "stop_sequence": 0, "stop_ticket": {"ticket_type": "", "zone": "Regional", "is_free_fare_zone": false, "ticket_machine": false, "ticket_checks": false, "vline_reservation": false, "ticket_zones": []}, "stop_id": 4279, "stop_name": "Bennet Lane", "stop_landmark": ""},
{"disruption_ids": [], "stop_suburb": "Bermagui (NSW)", "route_type": 3, "stop_latitude": -36.4271049, "stop_longitude": 150.076782, "stop_sequence": 0, "stop_ticket": {"ticket_type": "", "zone": "Regional", "is_free_fare_zone": false, "ticket_machine": false, "ticket_checks": false, "vline_reservation": false, "ticket_zones": []}, "stop_id": 4596, "stop_name": "Bermagui Motor Inn/Lamont St", "stop_landmark": "Bermagui Motor Inn"},
{"disruption_ids": [], "stop_suburb": "Eden (NSW)", "route_type": 3, "stop_latitude": -37.063015, "stop_longitude": 149.904251, "stop_sequence": 0, "stop_ticket": {"ticket_type": "", "zone": "Regional", "is_free_fare_zone": false, "ticket_machine": false, "ticket_checks": false, "vline_reservation": false, "ticket_zones": []}, "stop_id": 4278, "stop_name": "Caltex Service Station/Princes Hwy", "stop_landmark": "Caltex Service Station"},
{"disruption_ids": [], "stop_suburb": "Cann River", "route_type": 3, "stop_latitude": -37.5653038, "stop_longitude": 149.151962, "stop_sequence": 0, "stop_ticket": {"ticket_type": "", "zone": "Regional", "is_free_fare_zone": false, "ticket_machine": false, "ticket_checks": false, "vline_reservation": false, "ticket_zones": []}, "stop_id": 4264, "stop_name": "Cann River Police Station/Ward St", "stop_landmark": "Cann River Police Station"},
{"disruption_ids": [], "stop_suburb": "Bega (NSW)", "route_type": 3, "stop_latitude": -36.6738319, "stop_longitude": 149.842117, "stop_sequence": 0, "stop_ticket": {"ticket_type": "", "zone": "Regional", "is_free_fare_zone": false, "ticket_machine": false, "ticket_checks": false, "vline_reservation": false, "ticket_zones": []}, "stop_id": 4282, "stop_name": "Carp St/Church St", "stop_landmark": ""},
{"disruption_ids": [], "stop_suburb": "Caulfield East", "route_type": 3, "stop_latitude": -37.8774567, "stop_longitude": 145.042526, "stop_sequence": 0, "stop_ticket": {"ticket_type": "", "zone": "Regional,Zone 1", "is_free_fare_zone": false, "ticket_machine": false, "ticket_checks": false, "vline_reservation": false, "ticket_zones": [1]}, "stop_id": 1036, "stop_name": "Caulfield Railway Station", "stop_landmark": ""},
{"disruption_ids": [], "stop_suburb": "Dandenong", "route_type": 3, "stop_latitude": -37.9899673, "stop_longitude": 145.209732, "stop_sequence": 0, "stop_ticket": {"ticket_type": "", "zone": "Regional,Zone 2", "is_free_fare_zone": false, "ticket_machine": false, "ticket_checks": false, "vline_reservation": false, "ticket_zones": [2]}, "stop_id": 1049, "stop_name": "Dandenong Railway Station", "stop_landmark": "Dandenong Railway Station"},
{"disruption_ids": [], "stop_suburb": "Bodalla (NSW)", "route_type": 3, "stop_latitude": -36.0916176, "stop_longitude": 150.051483, "stop_sequence": 0, "stop_ticket": {"ticket_type": "", "zone": "Regional", "is_free_fare_zone": false, "ticket_machine": false, "ticket_checks": false, "vline_reservation": false, "ticket_zones": []}, "stop_id": 4571, "stop_name": "Eurobodalla Rd/Princes Hwy", "stop_landmark": ""},
{"disruption_ids": [], "stop_suburb": "Melbourne City", "route_type": 3, "stop_latitude": -37.81831, "stop_longitude": 144.966965, "stop_sequence": 0, "stop_ticket": {"ticket_type": "", "zone": "Regional,Zone 1", "is_free_fare_zone": false, "ticket_machine": false, "ticket_checks": true, "vline_reservation": true, "ticket_zones": [1]}, "stop_id": 1071, "stop_name": "Flinders Street Railway Station", "stop_landmark": ""},
{"disruption_ids": [], "stop_suburb": "Cabbage Tree Creek", "route_type": 3, "stop_latitude": -37.69782, "stop_longitude": 148.720581, "stop_sequence": 0, "stop_ticket": {"ticket_type": "", "zone": "Regional", "is_free_fare_zone": false, "ticket_machine": false, "ticket_checks": false, "vline_reservation": false, "ticket_zones": []}, "stop_id": 4271, "stop_name": "General Store/Princes Hwy", "stop_landmark": "General Store"},
{"disruption_ids": [], "stop_suburb": "Genoa", "route_type": 3, "stop_latitude": -37.4750633, "stop_longitude": 149.592, "stop_sequence": 0, "stop_ticket": {"ticket_type": "", "zone": "Regional", "is_free_fare_zone": false, "ticket_machine": false, "ticket_checks": false, "vline_reservation": false, "ticket_zones": []}, "stop_id": 4276, "stop_name": "Genoa Hotel/Alexanders Rd", "stop_landmark": "Genoa Hotel"},
{"disruption_ids": [], "stop_suburb": "Tuross (NSW)", "route_type": 3, "stop_latitude": -36.022274, "stop_longitude": 150.102875, "stop_sequence": 0, "stop_ticket": {"ticket_type": "", "zone": "Regional", "is_free_fare_zone": false, "ticket_machine": false, "ticket_checks": false, "vline_reservation": false, "ticket_zones": []}, "stop_id": 4285, "stop_name": "Hector McWilliams Dr/Princes Hwy", "stop_landmark": ""},
{"disruption_ids": [], "stop_suburb": "Moe", "route_type": 3, "stop_latitude": -38.1769066, "stop_longitude": 146.260574, "stop_sequence": 0, "stop_ticket": {"ticket_type": "", "zone": "Regional,Zone 10,Zone 9", "is_free_fare_zone": false, "ticket_machine": true, "ticket_checks": true, "vline_reservation": true, "ticket_zones": [10, 9]}, "stop_id": 1540, "stop_name": "Moe Railway Station", "stop_landmark": "Moe Station"},
{"disruption_ids": [], "stop_suburb": "Dalmeny (NSW)", "route_type": 3, "stop_latitude": -36.16993, "stop_longitude": 150.107941, "stop_sequence": 0, "stop_ticket": {"ticket_type": "", "zone": "Regional", "is_free_fare_zone": false, "ticket_machine": false, "ticket_checks": false, "vline_reservation": false, "ticket_zones": []}, "stop_id": 4499, "stop_name": "Mort Ave/Princes Hwy", "stop_landmark": ""},
{"disruption_ids": [], "stop_suburb": "Morwell", "route_type": 3, "stop_latitude": -38.2368469, "stop_longitude": 146.397736, "stop_sequence": 0, "stop_ticket": {"ticket_type": "", "zone": "Regional,Zone 11", "is_free_fare_zone": false, "ticket_machine": false, "ticket_checks": false, "vline_reservation": true, "ticket_zones": [11]}, "stop_id": 1542, "stop_name": "Morwell Railway Station", "stop_landmark": "Morwell Railway Station"},
{"disruption_ids": [], "stop_suburb": "Narooma (NSW)", "route_type": 3, "stop_latitude": -36.2166519, "stop_longitude": 150.127823, "stop_sequence": 0, "stop_ticket": {"ticket_type": "", "zone": "Regional", "is_free_fare_zone": false, "ticket_machine": false, "ticket_checks": false, "vline_reservation": false, "ticket_zones": []}, "stop_id": 4284, "stop_name": "Narooma Visitor Information Centre/Princes Hwy", "stop_landmark": "Narooma Visitor Information Centre"},
{"disruption_ids": [], "stop_suburb": "Orbost", "route_type": 3, "stop_latitude": -37.70588, "stop_longitude": 148.4553, "stop_sequence": 0, "stop_ticket": null, "stop_id": 4270, "stop_name": "Nicholson St/Wolseley St", "stop_landmark": ""},
{"disruption_ids": [], "stop_suburb": "Nowa Nowa", "route_type": 3, "stop_latitude": -37.73231, "stop_longitude": 148.0916, "stop_sequence": 0, "stop_ticket": {"ticket_type": "", "zone": "Regional", "is_free_fare_zone": false, "ticket_machine": false, "ticket_checks": false, "vline_reservation": false, "ticket_zones": []}, "stop_id": 4527, "stop_name": "Nowa Nowa General Store/Princes Hwy", "stop_landmark": "Nowa Nowa General Store"},
{"disruption_ids": [], "stop_suburb": "Nowa Nowa", "route_type": 3, "stop_latitude": -37.7339, "stop_longitude": 148.089188, "stop_sequence": 0, "stop_ticket": {"ticket_type": "", "zone": "Regional", "is_free_fare_zone": false, "ticket_machine": false, "ticket_checks": false, "vline_reservation": false, "ticket_zones": []}, "stop_id": 4269, "stop_name": "Nowa Nowa/Princes Hwy", "stop_landmark": "Nowa Nowa"},
{"disruption_ids": [], "stop_suburb": "Batemans Bay (NSW)", "route_type": 3, "stop_latitude": -35.7059441, "stop_longitude": 150.178146, "stop_sequence": 0, "stop_ticket": {"ticket_type": "", "zone": "Regional", "is_free_fare_zone": false, "ticket_machine": false, "ticket_checks": false, "vline_reservation": false, "ticket_zones": []}, "stop_id": 4289, "stop_name": "Orient St", "stop_landmark": ""},
{"disruption_ids": [], "stop_suburb": "Pakenham", "route_type": 3, "stop_latitude": -38.0806122, "stop_longitude": 145.486374, "stop_sequence": 0, "stop_ticket": {"ticket_type": "", "zone": "Regional,Zone 2", "is_free_fare_zone": false, "ticket_machine": false, "ticket_checks": false, "vline_reservation": false, "ticket_zones": [2]}, "stop_id": 1153, "stop_name": "Pakenham Railway Station", "stop_landmark": "Pakenham Railway Station"},
{"disruption_ids": [], "stop_suburb": "Merimbula (NSW)", "route_type": 3, "stop_latitude": -36.889, "stop_longitude": 149.909027, "stop_sequence": 0, "stop_ticket": {"ticket_type": "", "zone": "Regional", "is_free_fare_zone": false, "ticket_machine": false, "ticket_checks": false, "vline_reservation": false, "ticket_zones": []}, "stop_id": 4280, "stop_name": "Park St", "stop_landmark": ""},
{"disruption_ids": [], "stop_suburb": "Lakes Entrance", "route_type": 3, "stop_latitude": -37.88143, "stop_longitude": 147.982666, "stop_sequence": 0, "stop_ticket": null, "stop_id": 4259, "stop_name": "Post Office/Princes Hwy", "stop_landmark": "Post Office"},
{"disruption_ids": [], "stop_suburb": "Mogo (NSW)", "route_type": 3, "stop_latitude": -35.7827568, "stop_longitude": 150.142212, "stop_sequence": 0, "stop_ticket": {"ticket_type": "", "zone": "Regional", "is_free_fare_zone": false, "ticket_machine": false, "ticket_checks": false, "vline_reservation": false, "ticket_zones": []}, "stop_id": 4288, "stop_name": "Princes Hwy", "stop_landmark": ""},
{"disruption_ids": [], "stop_suburb": "Rosedale", "route_type": 3, "stop_latitude": -38.1564026, "stop_longitude": 146.786972, "stop_sequence": 0, "stop_ticket": {"ticket_type": "", "zone": "Regional,Zone 14", "is_free_fare_zone": false, "ticket_machine": false, "ticket_checks": false, "vline_reservation": false, "ticket_zones": [14]}, "stop_id": 1551, "stop_name": "Rosedale Railway Station", "stop_landmark": ""},
{"disruption_ids": [], "stop_suburb": "Sale", "route_type": 3, "stop_latitude": -38.1032257, "stop_longitude": 147.054688, "stop_sequence": 0, "stop_ticket": {"ticket_type": "", "zone": "Regional", "is_free_fare_zone": false, "ticket_machine": false, "ticket_checks": false, "vline_reservation": true, "ticket_zones": []}, "stop_id": 1553, "stop_name": "Sale Railway Station", "stop_landmark": "Sale Railway Station"},
{"disruption_ids": [], "stop_suburb": "Cobargo (NSW)", "route_type": 3, "stop_latitude": -36.38691, "stop_longitude": 149.88913, "stop_sequence": 0, "stop_ticket": {"ticket_type": "", "zone": "Regional", "is_free_fare_zone": false, "ticket_machine": false, "ticket_checks": false, "vline_reservation": false, "ticket_zones": []}, "stop_id": 4281, "stop_name": "Service Station/Tarlington St", "stop_landmark": "Service Station"},
{"disruption_ids": [], "stop_suburb": "Bodalla (NSW)", "route_type": 3, "stop_latitude": -36.0938721, "stop_longitude": 150.051819, "stop_sequence": 0, "stop_ticket": {"ticket_type": "", "zone": "Regional", "is_free_fare_zone": false, "ticket_machine": false, "ticket_checks": false, "vline_reservation": false, "ticket_zones": []}, "stop_id": 4286, "stop_name": "Shops/Princes Hwy", "stop_landmark": "Shops"},
{"disruption_ids": [], "stop_suburb": "Melbourne City", "route_type": 3, "stop_latitude": -37.8150864, "stop_longitude": 144.951157, "stop_sequence": 0, "stop_ticket": {"ticket_type": "", "zone": "Regional,Zone 1", "is_free_fare_zone": false, "ticket_machine": false, "ticket_checks": false, "vline_reservation": true, "ticket_zones": [1]}, "stop_id": 4529, "stop_name": "Southern Cross Coach Terminal/Spencer St", "stop_landmark": "Southern Cross Coach Terminal"},
{"disruption_ids": [], "stop_suburb": "Melbourne City", "route_type": 3, "stop_latitude": -37.8183327, "stop_longitude": 144.95253, "stop_sequence": 0, "stop_ticket": {"ticket_type": "", "zone": "Regional,Zone 1", "is_free_fare_zone": false, "ticket_machine": true, "ticket_checks": true, "vline_reservation": true, "ticket_zones": [1]}, "stop_id": 1181, "stop_name": "Southern Cross Railway Station", "stop_landmark": ""},
{"disruption_ids": [], "stop_suburb": "Stratford", "route_type": 3, "stop_latitude": -37.96705, "stop_longitude": 147.081467, "stop_sequence": 0, "stop_ticket": {"ticket_type": "", "zone": "Regional", "is_free_fare_zone": false, "ticket_machine": false, "ticket_checks": false, "vline_reservation": false, "ticket_zones": []}, "stop_id": 1558, "stop_name": "Stratford Railway Station", "stop_landmark": ""},
{"disruption_ids": [], "stop_suburb": "Bemm River", "route_type": 3, "stop_latitude": -37.6718063, "stop_longitude": 148.794876, "stop_sequence": 0, "stop_ticket": {"ticket_type": "", "zone": "Regional", "is_free_fare_zone": false, "ticket_machine": false, "ticket_checks": false, "vline_reservation": false, "ticket_zones": []}, "stop_id": 4583, "stop_name": "Sydenham Inlet Rd/Princes Hwy", "stop_landmark": ""},
{"disruption_ids": [], "stop_suburb": "Gipsy Point", "route_type": 3, "stop_latitude": -37.4804878, "stop_longitude": 149.67923, "stop_sequence": 0, "stop_ticket": {"ticket_type": "", "zone": "Regional", "is_free_fare_zone": false, "ticket_machine": false, "ticket_checks": false, "vline_reservation": false, "ticket_zones": []}, "stop_id": 4520, "stop_name": "Township/Gipsy Point Rd", "stop_landmark": "Township"},
{"disruption_ids": [], "stop_suburb": "Traralgon", "route_type": 3, "stop_latitude": -38.19832, "stop_longitude": 146.5387, "stop_sequence": 0, "stop_ticket": {"ticket_type": "", "zone": "Regional,Zone 12,Zone 13", "is_free_fare_zone": false, "ticket_machine": true, "ticket_checks": false, "vline_reservation": true, "ticket_zones": [12, 13]}, "stop_id": 1563, "stop_name": "Traralgon Railway Station", "stop_landmark": "Traralgon Station"},
{"disruption_ids": [], "stop_suburb": "Tostaree", "route_type": 3, "stop_latitude": -37.7425728, "stop_longitude": 148.158112, "stop_sequence": 0, "stop_ticket": null, "stop_id": 30270, "stop_name": "Wairewa Rd/Princes Hwy", "stop_landmark": ""},
{"disruption_ids": [], "stop_suburb": "Bermagui (NSW)", "route_type": 3, "stop_latitude": -36.4222679, "stop_longitude": 150.064468, "stop_sequence": 0, "stop_ticket": {"ticket_type": "", "zone": "Regional", "is_free_fare_zone": false, "ticket_machine": false, "ticket_checks": false, "vline_reservation": false, "ticket_zones": []}, "stop_id": 4591, "stop_name": "Wapengo St/Wallaga Lake Rd", "stop_landmark": ""},
{"disruption_ids": [], "stop_suburb": "Warragul", "route_type": 3, "stop_latitude": -38.165226, "stop_longitude": 145.932678, "stop_sequence": 0, "stop_ticket": {"ticket_type": "", "zone": "Regional,Zone 6,Zone 7", "is_free_fare_zone": false, "ticket_machine": true, "ticket_checks": true, "vline_reservation": true, "ticket_zones": [6, 7]}, "stop_id": 1568, "stop_name": "Warragul Railway Station", "stop_landmark": ""},
{"disruption_ids": [], "stop_suburb": "Newmerella", "route_type": 3, "stop_latitude": -37.7355042, "stop_longitude": 148.432068, "stop_sequence": 0, "stop_ticket": null, "stop_id": 4275, "stop_name": "Warrens Rd/Princes Hwy", "stop_landmark": ""},
{"disruption_ids": [], "stop_suburb": "Waygara", "route_type": 3, "stop_latitude": -37.7539444, "stop_longitude": 148.322754, "stop_sequence": 0, "stop_ticket": null, "stop_id": 4274, "stop_name": "Waygara Rd/Princes Hwy", "stop_landmark": ""},
{"disruption_ids": [], "stop_suburb": "Wonboyn (NSW)", "route_type": 3, "stop_latitude": -37.22874, "stop_longitude": 149.830933, "stop_sequence": 0, "stop_ticket": {"ticket_type": "", "zone": "Regional", "is_free_fare_zone": false, "ticket_machine": false, "ticket_checks": false, "vline_reservation": false, "ticket_zones": []}, "stop_id": 4277, "stop_name": "Wonboyn Rd/Princes Hwy", "stop_landmark": ""},
{"disruption_ids": [], "stop_suburb": "Bairnsdale", "route_type": 3, "stop_latitude": -37.82551, "stop_longitude": 147.632278, "stop_sequence": 0, "stop_ticket": {"ticket_type": "", "zone": "Regional", "is_free_fare_zone": false, "ticket_machine": false, "ticket_checks": false, "vline_reservation": false, "ticket_zones": []}, "stop_id": 4253, "stop_name": "Bailey St/Princes Hwy", "stop_landmark": ""},
{"disruption_ids": [], "stop_suburb": "Bairnsdale", "route_type": 3, "stop_latitude": -37.82846, "stop_longitude": 147.627411, "stop_sequence": 0, "stop_ticket": {"ticket_type": "", "zone": "Regional", "is_free_fare_zone": false, "ticket_machine": false, "ticket_checks": false, "vline_reservation": true, "ticket_zones": []}, "stop_id": 1504, "stop_name": "Bairnsdale Railway Station", "stop_landmark": "Bairnsdale Railway Station"},
{"disruption_ids": [], "stop_suburb": "Lake Tyers Beach", "route_type": 3, "stop_latitude": -37.861866, "stop_longitude": 148.070679, "stop_sequence": 0, "stop_ticket": {"ticket_type": "", "zone": "Regional", "is_free_fare_zone": false, "ticket_machine": false, "ticket_checks": false, "vline_reservation": false, "ticket_zones": []}, "stop_id": 4262, "stop_name": "Barracouta Rd/Lake Tyers Rd", "stop_landmark": ""},
{"disruption_ids": [], "stop_suburb": "Bemm River", "route_type": 3, "stop_latitude": -37.6724167, "stop_longitude": 148.7942, "stop_sequence": 0, "stop_ticket": {"ticket_type": "", "zone": "Regional", "is_free_fare_zone": false, "ticket_machine": false, "ticket_checks": false, "vline_reservation": false, "ticket_zones": []}, "stop_id": 3336, "stop_name": "Bemm River Rd/Princes Hwy", "stop_landmark": ""},
{"disruption_ids": [], "stop_suburb": "Kingston (ACT)", "route_type": 3, "stop_latitude": -35.31953, "stop_longitude": 149.148636, "stop_sequence": 0, "stop_ticket": {"ticket_type": "", "zone": "Regional", "is_free_fare_zone": false, "ticket_machine": false, "ticket_checks": false, "vline_reservation": false, "ticket_zones": []}, "stop_id": 4268, "stop_name": "Canberra Railway Station/Burke Cres", "stop_landmark": "Canberra Railway Station"},
{"disruption_ids": [], "stop_suburb": "Cann River", "route_type": 3, "stop_latitude": -37.5653038, "stop_longitude": 149.151962, "stop_sequence": 0, "stop_ticket": {"ticket_type": "", "zone": "Regional", "is_free_fare_zone": false, "ticket_machine": false, "ticket_checks": false, "vline_reservation": false, "ticket_zones": []}, "stop_id": 4264, "stop_name": "Cann River Police Station/Ward St", "stop_landmark": "Cann River Police Station"},
{"disruption_ids": [], "stop_suburb": "Caulfield East", "route_type": 3, "stop_latitude": -37.8774567, "stop_longitude": 145.042526, "stop_sequence": 0, "stop_ticket": {"ticket_type": "", "zone": "Regional,Zone 1", "is_free_fare_zone": false, "ticket_machine": false, "ticket_checks": false, "vline_reservation": false, "ticket_zones": [1]}, "stop_id": 1036, "stop_name": "Caulfield Railway Station", "stop_landmark": ""},
{"disruption_ids": [], "stop_suburb": "Cooma (NSW)", "route_type": 3, "stop_latitude": -36.2340279, "stop_longitude": 149.126511, "stop_sequence": 0, "stop_ticket": {"ticket_type": "", "zone": "Regional", "is_free_fare_zone": false, "ticket_machine": false, "ticket_checks": false, "vline_reservation": false, "ticket_zones": []}, "stop_id": 4265, "stop_name": "Centennial Park/Bombala St", "stop_landmark": "Centennial Park"},
{"disruption_ids": [], "stop_suburb": "Dandenong", "route_type": 3, "stop_latitude": -37.9899673, "stop_longitude": 145.209732, "stop_sequence": 0, "stop_ticket": {"ticket_type": "", "zone": "Regional,Zone 2", "is_free_fare_zone": false, "ticket_machine": false, "ticket_checks": false, "vline_reservation": false, "ticket_zones": [2]}, "stop_id": 1049, "stop_name": "Dandenong Railway Station", "stop_landmark": "Dandenong Railway Station"},
{"disruption_ids": [], "stop_suburb": "Melbourne City", "route_type": 3, "stop_latitude": -37.81831, "stop_longitude": 144.966965, "stop_sequence": 0, "stop_ticket": {"ticket_type": "", "zone": "Regional,Zone 1", "is_free_fare_zone": false, "ticket_machine": false, "ticket_checks": true, "vline_reservation": true, "ticket_zones": [1]}, "stop_id": 1071, "stop_name": "Flinders Street Railway Station", "stop_landmark": ""},
{"disruption_ids": [], "stop_suburb": "Swan Reach", "route_type": 3, "stop_latitude": -37.8402519, "stop_longitude": 147.9273, "stop_sequence": 0, "stop_ticket": null, "stop_id": 30926, "stop_name": "Forest Tech/Princes Hwy", "stop_landmark": "Forest Tech"},
{"disruption_ids": [], "stop_suburb": "Swan Reach", "route_type": 3, "stop_latitude": -37.822, "stop_longitude": 147.856766, "stop_sequence": 0, "stop_ticket": {"ticket_type": "", "zone": "Regional", "is_free_fare_zone": false, "ticket_machine": false, "ticket_checks": false, "vline_reservation": false, "ticket_zones": []}, "stop_id": 4256, "stop_name": "General Store/Princes Hwy", "stop_landmark": "General Store"},
{"disruption_ids": [], "stop_suburb": "Johnsonville", "route_type": 3, "stop_latitude": -37.8201, "stop_longitude": 147.8312, "stop_sequence": 0, "stop_ticket": {"ticket_type": "", "zone": "Regional", "is_free_fare_zone": false, "ticket_machine": false, "ticket_checks": false, "vline_reservation": false, "ticket_zones": []}, "stop_id": 4255, "stop_name": "General Store/Princes Hwy", "stop_landmark": "General Store"},
{"disruption_ids": [], "stop_suburb": "Nicholson", "route_type": 3, "stop_latitude": -37.81664, "stop_longitude": 147.739059, "stop_sequence": 0, "stop_ticket": {"ticket_type": "", "zone": "Regional", "is_free_fare_zone": false, "ticket_machine": false, "ticket_checks": false, "vline_reservation": false, "ticket_zones": []}, "stop_id": 4254, "stop_name": "General Store/Princes Hwy", "stop_landmark": "General Store"},
{"disruption_ids": [], "stop_suburb": "Cabbage Tree Creek", "route_type": 3, "stop_latitude": -37.69782, "stop_longitude": 148.720581, "stop_sequence": 0, "stop_ticket": {"ticket_type": "", "zone": "Regional", "is_free_fare_zone": false, "ticket_machine": false, "ticket_checks": false, "vline_reservation": false, "ticket_zones": []}, "stop_id": 4271, "stop_name": "General Store/Princes Hwy", "stop_landmark": "General Store"},
{"disruption_ids": [], "stop_suburb": "Sale", "route_type": 3, "stop_latitude": -38.1072273, "stop_longitude": 147.0635, "stop_sequence": 0, "stop_ticket": {"ticket_type": "", "zone": "Regional", "is_free_fare_zone": false, "ticket_machine": false, "ticket_checks": false, "vline_reservation": false, "ticket_zones": []}, "stop_id": 4074, "stop_name": "Gippsland Shopping Centre/Cunninghame St", "stop_landmark": "Gippsland Shopping Centre"},
{"disruption_ids": [], "stop_suburb": "Kalimna West", "route_type": 3, "stop_latitude": -37.8688545, "stop_longitude": 147.957214, "stop_sequence": 0, "stop_ticket": {"ticket_type": "", "zone": "Regional", "is_free_fare_zone": false, "ticket_machine": false, "ticket_checks": false, "vline_reservation": false, "ticket_zones": []}, "stop_id": 4257, "stop_name": "Hunters Lane/Princes Hwy", "stop_landmark": ""},
{"disruption_ids": [], "stop_suburb": "Lakes Entrance", "route_type": 3, "stop_latitude": -37.87477, "stop_longitude": 148.007462, "stop_sequence": 0, "stop_ticket": null, "stop_id": 4588, "stop_name": "Jetty Rd/Princes Hwy", "stop_landmark": ""},
{"disruption_ids": [], "stop_suburb": "Canberra (ACT)", "route_type": 3, "stop_latitude": -35.2774124, "stop_longitude": 149.128571, "stop_sequence": 0, "stop_ticket": {"ticket_type": "", "zone": "Regional", "is_free_fare_zone": false, "ticket_machine": false, "ticket_checks": false, "vline_reservation": false, "ticket_zones": []}, "stop_id": 4263, "stop_name": "Jolimont Centre/Northbourne Ave", "stop_landmark": "Jolimont Centre"},
{"disruption_ids": [], "stop_suburb": "Rosedale", "route_type": 3, "stop_latitude": -38.1509933, "stop_longitude": 146.7847, "stop_sequence": 0, "stop_ticket": {"ticket_type": "", "zone": "Regional,Zone 14", "is_free_fare_zone": false, "ticket_machine": false, "ticket_checks": false, "vline_reservation": false, "ticket_zones": [14]}, "stop_id": 4304, "stop_name": "Latrobe St/Princes Hwy", "stop_landmark": ""},
{"disruption_ids": [], "stop_suburb": "Lindenow", "route_type": 3, "stop_latitude": -37.8810158, "stop_longitude": 147.421783, "stop_sequence": 0, "stop_ticket": {"ticket_type": "", "zone": "Regional", "is_free_fare_zone": false, "ticket_machine": false, "ticket_checks": false, "vline_reservation": false, "ticket_zones": []}, "stop_id": 4250, "stop_name": "Lindenow Rd/Princes Hwy", "stop_landmark": ""},
{"disruption_ids": [], "stop_suburb": "Kalimna", "route_type": 3, "stop_latitude": -37.8792458, "stop_longitude": 147.961884, "stop_sequence": 0, "stop_ticket": null, "stop_id": 4258, "stop_name": "Lookout Rd/Princes Hwy", "stop_landmark": ""},
{"disruption_ids": [], "stop_suburb": "Moe", "route_type": 3, "stop_latitude": -38.1769066, "stop_longitude": 146.260574, "stop_sequence": 0, "stop_ticket": {"ticket_type": "", "zone": "Regional,Zone 10,Zone 9", "is_free_fare_zone": false, "ticket_machine": true, "ticket_checks": true, "vline_reservation": true, "ticket_zones": [10, 9]}, "stop_id": 1540, "stop_name": "Moe Railway Station", "stop_landmark": "Moe Station"},
{"disruption_ids": [], "stop_suburb": "Nimmitabel (NSW)", "route_type": 3, "stop_latitude": -36.51358, "stop_longitude": 149.283722, "stop_sequence": 0, "stop_ticket": {"ticket_type": "", "zone": "Regional", "is_free_fare_zone": false, "ticket_machine": false, "ticket_checks": false, "vline_reservation": false, "ticket_zones": []}, "stop_id": 4570, "stop_name": "Monro St/Bombala St", "stop_landmark": ""},
{"disruption_ids": [], "stop_suburb": "Morwell", "route_type": 3, "stop_latitude": -38.2368469, "stop_longitude": 146.397736, "stop_sequence": 0, "stop_ticket": {"ticket_type": "", "zone": "Regional,Zone 11", "is_free_fare_zone": false, "ticket_machine": false, "ticket_checks": false, "vline_reservation": true, "ticket_zones": [11]}, "stop_id": 1542, "stop_name": "Morwell Railway Station", "stop_landmark": "Morwell Railway Station"},
{"disruption_ids": [], "stop_suburb": "Orbost", "route_type": 3, "stop_latitude": -37.70588, "stop_longitude": 148.4553, "stop_sequence": 0, "stop_ticket": null, "stop_id": 4270, "stop_name": "Nicholson St/Wolseley St", "stop_landmark": ""},
{"disruption_ids": [], "stop_suburb": "Nimmitabel (NSW)", "route_type": 3, "stop_latitude": -36.513298, "stop_longitude": 149.283646, "stop_sequence": 0, "stop_ticket": {"ticket_type": "", "zone": "Regional", "is_free_fare_zone": false, "ticket_machine": false, "ticket_checks": false, "vline_reservation": false, "ticket_zones": []}, "stop_id": 4267, "stop_name": "Nimmitabel Bakery/Bombala St", "stop_landmark": "Nimmitabel Bakery"},
{"disruption_ids": [], "stop_suburb": "Nowa Nowa", "route_type": 3, "stop_latitude": -37.73231, "stop_longitude": 148.0916, "stop_sequence": 0, "stop_ticket": {"ticket_type": "", "zone": "Regional", "is_free_fare_zone": false, "ticket_machine": false, "ticket_checks": false, "vline_reservation": false, "ticket_zones": []}, "stop_id": 4527, "stop_name": "Nowa Nowa General Store/Princes Hwy", "stop_landmark": "Nowa Nowa General Store"},
{"disruption_ids": [], "stop_suburb": "Nowa Nowa", "route_type": 3, "stop_latitude": -37.7339, "stop_longitude": 148.089188, "stop_sequence": 0, "stop_ticket": {"ticket_type": "", "zone": "Regional", "is_free_fare_zone": false, "ticket_machine": false, "ticket_checks": false, "vline_reservation": false, "ticket_zones": []}, "stop_id": 4269, "stop_name": "Nowa Nowa/Princes Hwy", "stop_landmark": "Nowa Nowa"},
{"disruption_ids": [], "stop_suburb": "Lakes Entrance", "route_type": 3, "stop_latitude": -37.8775864, "stop_longitude": 147.995224, "stop_sequence": 0, "stop_ticket": {"ticket_type": "", "zone": "Regional", "is_free_fare_zone": false, "ticket_machine": false, "ticket_checks": false, "vline_reservation": false, "ticket_zones": []}, "stop_id": 4072, "stop_name": "Police Station/Roadknight St", "stop_landmark": "Police Station"},
{"disruption_ids": [], "stop_suburb": "Lakes Entrance", "route_type": 3, "stop_latitude": -37.88143, "stop_longitude": 147.982666, "stop_sequence": 0, "stop_ticket": null, "stop_id": 4259, "stop_name": "Post Office/Princes Hwy", "stop_landmark": "Post Office"},
{"disruption_ids": [], "stop_suburb": "Rosedale", "route_type": 3, "stop_latitude": -38.1564026, "stop_longitude": 146.786972, "stop_sequence": 0, "stop_ticket": {"ticket_type": "", "zone": "Regional,Zone 14", "is_free_fare_zone": false, "ticket_machine": false, "ticket_checks": false, "vline_reservation": false, "ticket_zones": [14]}, "stop_id": 1551, "stop_name": "Rosedale Railway Station", "stop_landmark": ""},
{"disruption_ids": [], "stop_suburb": "Sale", "route_type": 3, "stop_latitude": -38.1032257, "stop_longitude": 147.054688, "stop_sequence": 0, "stop_ticket": {"ticket_type": "", "zone": "Regional", "is_free_fare_zone": false, "ticket_machine": false, "ticket_checks": false, "vline_reservation": true, "ticket_zones": []}, "stop_id": 1553, "stop_name": "Sale Railway Station", "stop_landmark": "Sale Railway Station"},
{"disruption_ids": [], "stop_suburb": "Melbourne City", "route_type": 3, "stop_latitude": -37.8183327, "stop_longitude": 144.95253, "stop_sequence": 0, "stop_ticket": {"ticket_type": "", "zone": "Regional,Zone 1", "is_free_fare_zone": false, "ticket_machine": true, "ticket_checks": true, "vline_reservation": true, "ticket_zones": [1]}, "stop_id": 1181, "stop_name": "Southern Cross Railway Station", "stop_landmark": ""},
{"disruption_ids": [], "stop_suburb": "Stratford", "route_type": 3, "stop_latitude": -37.96705, "stop_longitude": 147.081467, "stop_sequence": 0, "stop_ticket": {"ticket_type": "", "zone": "Regional", "is_free_fare_zone": false, "ticket_machine": false, "ticket_checks": false, "vline_reservation": false, "ticket_zones": []}, "stop_id": 1558, "stop_name": "Stratford Railway Station", "stop_landmark": ""},
{"disruption_ids": [], "stop_suburb": "Bemm River", "route_type": 3, "stop_latitude": -37.6718063, "stop_longitude": 148.794876, "stop_sequence": 0, "stop_ticket": {"ticket_type": "", "zone": "Regional", "is_free_fare_zone": false, "ticket_machine": false, "ticket_checks": false, "vline_reservation": false, "ticket_zones": []}, "stop_id": 4583, "stop_name": "Sydenham Inlet Rd/Princes Hwy", "stop_landmark": ""},
{"disruption_ids": [], "stop_suburb": "Traralgon", "route_type": 3, "stop_latitude": -38.19832, "stop_longitude": 146.5387, "stop_sequence": 0, "stop_ticket": {"ticket_type": "", "zone": "Regional,Zone 12,Zone 13", "is_free_fare_zone": false, "ticket_machine": true, "ticket_checks": false, "vline_reservation": true, "ticket_zones": [12, 13]}, "stop_id": 1563, "stop_name": "Traralgon Railway Station", "stop_landmark": "Traralgon Station"},
{"disruption_ids": [], "stop_suburb": "Bombala (NSW)", "route_type": 3, "stop_latitude": -36.91121, "stop_longitude": 149.240326, "stop_sequence": 0, "stop_ticket": {"ticket_type": "", "zone": "Regional", "is_free_fare_zone": false, "ticket_machine": false, "ticket_checks": false, "vline_reservation": false, "ticket_zones": []}, "stop_id": 4266, "stop_name": "War Memorial/Forbes St", "stop_landmark": "War Memorial"},
{"disruption_ids": [], "stop_suburb": "Warragul", "route_type": 3, "stop_latitude": -38.165226, "stop_longitude": 145.932678, "stop_sequence": 0, "stop_ticket": {"ticket_type": "", "zone": "Regional,Zone 6,Zone 7", "is_free_fare_zone": false, "ticket_machine": true, "ticket_checks": true, "vline_reservation": true, "ticket_zones": [6, 7]}, "stop_id": 1568, "stop_name": "Warragul Railway Station", "stop_landmark": ""},
{"disruption_ids": [], "stop_suburb": "Tyers", "route_type": 3, "stop_latitude": -38.1490746, "stop_longitude": 146.4828, "stop_sequence": 0, "stop_ticket": {"ticket_type": "", "zone": "Regional,Zone 12,Zone 13", "is_free_fare_zone": false, "ticket_machine": false, "ticket_checks": false, "vline_reservation": false, "ticket_zones": [12, 13]}, "stop_id": 4522, "stop_name": "79 Moe-Glengarry Rd", "stop_landmark": ""},
{"disruption_ids": [], "stop_suburb": "Maffra", "route_type": 3, "stop_latitude": -37.9704, "stop_longitude": 146.982361, "stop_sequence": 0, "stop_ticket": {"ticket_type": "", "zone": "Regional", "is_free_fare_zone": false, "ticket_machine": false, "ticket_checks": false, "vline_reservation": false, "ticket_zones": []}, "stop_id": 4506, "stop_name": "Boisdale St/Johnson St", "stop_landmark": ""},
{"disruption_ids": [], "stop_suburb": "Caulfield East", "route_type": 3, "stop_latitude": -37.8774567, "stop_longitude": 145.042526, "stop_sequence": 0, "stop_ticket": {"ticket_type": "", "zone": "Regional,Zone 1", "is_free_fare_zone": false, "ticket_machine": false, "ticket_checks": false, "vline_reservation": false, "ticket_zones": [1]}, "stop_id": 1036, "stop_name": "Caulfield Railway Station", "stop_landmark": ""},
{"disruption_ids": [], "stop_suburb": "Dandenong", "route_type": 3, "stop_latitude": -37.9899673, "stop_longitude": 145.209732, "stop_sequence": 0, "stop_ticket": {"ticket_type": "", "zone": "Regional,Zone 2", "is_free_fare_zone": false, "ticket_machine": false, "ticket_checks": false, "vline_reservation": false, "ticket_zones": [2]}, "stop_id": 1049, "stop_name": "Dandenong Railway Station", "stop_landmark": "Dandenong Railway Station"},
{"disruption_ids": [], "stop_suburb": "Drouin", "route_type": 3, "stop_latitude": -38.13645, "stop_longitude": 145.855942, "stop_sequence": 0, "stop_ticket": {"ticket_type": "", "zone": "Regional,Zone 6", "is_free_fare_zone": false, "ticket_machine": true, "ticket_checks": true, "vline_reservation": true, "ticket_zones": [6]}, "stop_id": 1521, "stop_name": "Drouin Railway Station", "stop_landmark": "Drouin Railway Station"},
{"disruption_ids": [], "stop_suburb": "Melbourne City", "route_type": 3, "stop_latitude": -37.81831, "stop_longitude": 144.966965, "stop_sequence": 0, "stop_ticket": {"ticket_type": "", "zone": "Regional,Zone 1", "is_free_fare_zone": false, "ticket_machine": false, "ticket_checks": true, "vline_reservation": true, "ticket_zones": [1]}, "stop_id": 1071, "stop_name": "Flinders Street Railway Station", "stop_landmark": ""},
{"disruption_ids": [], "stop_suburb": "Garfield", "route_type": 3, "stop_latitude": -38.09103, "stop_longitude": 145.674225, "stop_sequence": 0, "stop_ticket": {"ticket_type": "", "zone": "Regional,Zone 4,Zone 5", "is_free_fare_zone": false, "ticket_machine": true, "ticket_checks": true, "vline_reservation": false, "ticket_zones": [4, 5]}, "stop_id": 1526, "stop_name": "Garfield Railway Station", "stop_landmark": "Garfield Railway Station"},
{"disruption_ids": [], "stop_suburb": "Tinamba", "route_type": 3, "stop_latitude": -37.96271, "stop_longitude": 146.891663, "stop_sequence": 0, "stop_ticket": {"ticket_type": "", "zone": "Regional", "is_free_fare_zone": false, "ticket_machine": false, "ticket_checks": false, "vline_reservation": false, "ticket_zones": []}, "stop_id": 4378, "stop_name": "General Store/Traralgon-Maffra Rd", "stop_landmark": "General Store"},
{"disruption_ids": [], "stop_suburb": "Sale", "route_type": 3, "stop_latitude": -38.1072273, "stop_longitude": 147.0635, "stop_sequence": 0, "stop_ticket": {"ticket_type": "", "zone": "Regional", "is_free_fare_zone": false, "ticket_machine": false, "ticket_checks": false, "vline_reservation": false, "ticket_zones": []}, "stop_id": 4074, "stop_name": "Gippsland Shopping Centre/Cunninghame St", "stop_landmark": "Gippsland Shopping Centre"},
{"disruption_ids": [], "stop_suburb": "Heyfield", "route_type": 3, "stop_latitude": -37.9795, "stop_longitude": 146.791931, "stop_sequence": 0, "stop_ticket": {"ticket_type": "", "zone": "Regional", "is_free_fare_zone": false, "ticket_machine": false, "ticket_checks": false, "vline_reservation": false, "ticket_zones": []}, "stop_id": 4604, "stop_name": "Gordon St/Maffra Rd", "stop_landmark": ""},
{"disruption_ids": [], "stop_suburb": "Heyfield", "route_type": 3, "stop_latitude": -37.97932, "stop_longitude": 146.791229, "stop_sequence": 0, "stop_ticket": {"ticket_type": "", "zone": "Regional", "is_free_fare_zone": false, "ticket_machine": false, "ticket_checks": false, "vline_reservation": false, "ticket_zones": []}, "stop_id": 4509, "stop_name": "Gordon St/Mary St", "stop_landmark": ""},
{"disruption_ids": [], "stop_suburb": "Wurruk", "route_type": 3, "stop_latitude": -38.10513, "stop_longitude": 147.031418, "stop_sequence": 0, "stop_ticket": {"ticket_type": "", "zone": "Regional", "is_free_fare_zone": false, "ticket_machine": false, "ticket_checks": false, "vline_reservation": false, "ticket_zones": []}, "stop_id": 4052, "stop_name": "Hunt Pl/Princes Hwy", "stop_landmark": ""},
{"disruption_ids": [], "stop_suburb": "Rosedale", "route_type": 3, "stop_latitude": -38.1509933, "stop_longitude": 146.7847, "stop_sequence": 0, "stop_ticket": {"ticket_type": "", "zone": "Regional,Zone 14", "is_free_fare_zone": false, "ticket_machine": false, "ticket_checks": false, "vline_reservation": false, "ticket_zones": [14]}, "stop_id": 4304, "stop_name": "Latrobe St/Princes Hwy", "stop_landmark": ""},
{"disruption_ids": [], "stop_suburb": "Cowwarr", "route_type": 3, "stop_latitude": -38.01404, "stop_longitude": 146.6955, "stop_sequence": 0, "stop_ticket": {"ticket_type": "", "zone": "Regional", "is_free_fare_zone": false, "ticket_machine": false, "ticket_checks": false, "vline_reservation": false, "ticket_zones": []}, "stop_id": 4177, "stop_name": "McEwan Rd/Traralgon - Maffra Rd", "stop_landmark": ""},
{"disruption_ids": [], "stop_suburb": "Moe", "route_type": 3, "stop_latitude": -38.1769066, "stop_longitude": 146.260574, "stop_sequence": 0, "stop_ticket": {"ticket_type": "", "zone": "Regional,Zone 10,Zone 9", "is_free_fare_zone": false, "ticket_machine": true, "ticket_checks": true, "vline_reservation": true, "ticket_zones": [10, 9]}, "stop_id": 1540, "stop_name": "Moe Railway Station", "stop_landmark": "Moe Station"},
{"disruption_ids": [], "stop_suburb": "Morwell", "route_type": 3, "stop_latitude": -38.2368469, "stop_longitude": 146.397736, "stop_sequence": 0, "stop_ticket": {"ticket_type": "", "zone": "Regional,Zone 11", "is_free_fare_zone": false, "ticket_machine": false, "ticket_checks": false, "vline_reservation": true, "ticket_zones": [11]}, "stop_id": 1542, "stop_name": "Morwell Railway Station", "stop_landmark": "Morwell Railway Station"},
{"disruption_ids": [], "stop_suburb": "Glengarry", "route_type": 3, "stop_latitude": -38.12548, "stop_longitude": 146.573547, "stop_sequence": 0, "stop_ticket": {"ticket_type": "", "zone": "Regional,Zone 13,Zone 14", "is_free_fare_zone": false, "ticket_machine": false, "ticket_checks": false, "vline_reservation": false, "ticket_zones": [13, 14]}, "stop_id": 4573, "stop_name": "Opp Glengarry Hotel/Main St", "stop_landmark": "Opp Glengarry Hotel"},
{"disruption_ids": [], "stop_suburb": "Pakenham", "route_type": 3, "stop_latitude": -38.0806122, "stop_longitude": 145.486374, "stop_sequence": 0, "stop_ticket": {"ticket_type": "", "zone": "Regional,Zone 2", "is_free_fare_zone": false, "ticket_machine": false, "ticket_checks": false, "vline_reservation": false, "ticket_zones": [2]}, "stop_id": 1153, "stop_name": "Pakenham Railway Station", "stop_landmark": "Pakenham Railway Station"},
{"disruption_ids": [], "stop_suburb": "Maffra", "route_type": 3, "stop_latitude": -37.96638, "stop_longitude": 146.975311, "stop_sequence": 0, "stop_ticket": {"ticket_type": "", "zone": "Regional", "is_free_fare_zone": false, "ticket_machine": false, "ticket_checks": false, "vline_reservation": false, "ticket_zones": []}, "stop_id": 4507, "stop_name": "Pearson St/Johnson St", "stop_landmark": ""},
{"disruption_ids": [], "stop_suburb": "Heyfield", "route_type": 3, "stop_latitude": -37.9825935, "stop_longitude": 146.784866, "stop_sequence": 0, "stop_ticket": {"ticket_type": "", "zone": "Regional", "is_free_fare_zone": false, "ticket_machine": false, "ticket_checks": false, "vline_reservation": false, "ticket_zones": []}, "stop_id": 4510, "stop_name": "Primary School/Harbeck St", "stop_landmark": "Primary School"},
{"disruption_ids": [], "stop_suburb": "Cowwarr", "route_type": 3, "stop_latitude": -38.01404, "stop_longitude": 146.695953, "stop_sequence": 0, "stop_ticket": {"ticket_type": "", "zone": "Regional", "is_free_fare_zone": false, "ticket_machine": false, "ticket_checks": false, "vline_reservation": false, "ticket_zones": []}, "stop_id": 4600, "stop_name": "Railway St/Traralgon - Maffra Rd", "stop_landmark": ""},
{"disruption_ids": [], "stop_suburb": "Rosedale", "route_type": 3, "stop_latitude": -38.1564026, "stop_longitude": 146.786972, "stop_sequence": 0, "stop_ticket": {"ticket_type": "", "zone": "Regional,Zone 14", "is_free_fare_zone": false, "ticket_machine": false, "ticket_checks": false, "vline_reservation": false, "ticket_zones": [14]}, "stop_id": 1551, "stop_name": "Rosedale Railway Station", "stop_landmark": ""},
{"disruption_ids": [], "stop_suburb": "Sale", "route_type": 3, "stop_latitude": -38.1032257, "stop_longitude": 147.054688, "stop_sequence": 0, "stop_ticket": {"ticket_type": "", "zone": "Regional", "is_free_fare_zone": false, "ticket_machine": false, "ticket_checks": false, "vline_reservation": true, "ticket_zones": []}, "stop_id": 1553, "stop_name": "Sale Railway Station", "stop_landmark": "Sale Railway Station"},
{"disruption_ids": [], "stop_suburb": "Melbourne City", "route_type": 3, "stop_latitude": -37.8150864, "stop_longitude": 144.951157, "stop_sequence": 0, "stop_ticket": {"ticket_type": "", "zone": "Regional,Zone 1", "is_free_fare_zone": false, "ticket_machine": false, "ticket_checks": false, "vline_reservation": true, "ticket_zones": [1]}, "stop_id": 4529, "stop_name": "Southern Cross Coach Terminal/Spencer St", "stop_landmark": "Southern Cross Coach Terminal"},
{"disruption_ids": [], "stop_suburb": "Melbourne City", "route_type": 3, "stop_latitude": -37.8183327, "stop_longitude": 144.95253, "stop_sequence": 0, "stop_ticket": {"ticket_type": "", "zone": "Regional,Zone 1", "is_free_fare_zone": false, "ticket_machine": true, "ticket_checks": true, "vline_reservation": true, "ticket_zones": [1]}, "stop_id": 1181, "stop_name": "Southern Cross Railway Station", "stop_landmark": ""},
{"disruption_ids": [], "stop_suburb": "Traralgon", "route_type": 3, "stop_latitude": -38.1944237, "stop_longitude": 146.538422, "stop_sequence": 0, "stop_ticket": {"ticket_type": "", "zone": "Regional,Zone 12,Zone 13", "is_free_fare_zone": false, "ticket_machine": false, "ticket_checks": false, "vline_reservation": false, "ticket_zones": [12, 13]}, "stop_id": 4498, "stop_name": "Traralgon Plaza SC/Franklin St", "stop_landmark": "Traralgon Plaza SC"},
{"disruption_ids": [], "stop_suburb": "Traralgon", "route_type": 3, "stop_latitude": -38.19832, "stop_longitude": 146.5387, "stop_sequence": 0, "stop_ticket": {"ticket_type": "", "zone": "Regional,Zone 12,Zone 13", "is_free_fare_zone": false, "ticket_machine": true, "ticket_checks": false, "vline_reservation": true, "ticket_zones": [12, 13]}, "stop_id": 1563, "stop_name": "Traralgon Railway Station", "stop_landmark": "Traralgon Station"},
{"disruption_ids": [], "stop_suburb": "Toongabbie", "route_type": 3, "stop_latitude": -38.0599327, "stop_longitude": 146.624161, "stop_sequence": 0, "stop_ticket": {"ticket_type": "", "zone": "Regional,Zone 14", "is_free_fare_zone": false, "ticket_machine": false, "ticket_checks": false, "vline_reservation": false, "ticket_zones": [14]}, "stop_id": 4512, "stop_name": "Victoria St/Cowen St", "stop_landmark": ""},
{"disruption_ids": [], "stop_suburb": "Warragul", "route_type": 3, "stop_latitude": -38.165226, "stop_longitude": 145.932678, "stop_sequence": 0, "stop_ticket": {"ticket_type": "", "zone": "Regional,Zone 6,Zone 7", "is_free_fare_zone": false, "ticket_machine": true, "ticket_checks": true, "vline_reservation": true, "ticket_zones": [6, 7]}, "stop_id": 1568, "stop_name": "Warragul Railway Station", "stop_landmark": ""},
{"disruption_ids": [], "stop_suburb": "Bass", "route_type": 3, "stop_latitude": -38.48327, "stop_longitude": 145.466919, "stop_sequence": 0, "stop_ticket": {"ticket_type": "", "zone": "Regional,Zone 7,Zone 8", "is_free_fare_zone": false, "ticket_machine": false, "ticket_checks": false, "vline_reservation": false, "ticket_zones": [7, 8]}, "stop_id": 4463, "stop_name": "65 Hade Ave #63", "stop_landmark": ""},
{"disruption_ids": [], "stop_suburb": "Anderson", "route_type": 3, "stop_latitude": -38.52635, "stop_longitude": 145.447525, "stop_sequence": 0, "stop_ticket": {"ticket_type": "", "zone": "Regional,Zone 7,Zone 8", "is_free_fare_zone": false, "ticket_machine": false, "ticket_checks": false, "vline_reservation": false, "ticket_zones": [7, 8]}, "stop_id": 4464, "stop_name": "Anderson Bus Interchange/Bass Hwy", "stop_landmark": "Anderson Bus Interchange"},
{"disruption_ids": [], "stop_suburb": "Jam Jerrup", "route_type": 3, "stop_latitude": -38.3252144, "stop_longitude": 145.543533, "stop_sequence": 0, "stop_ticket": null, "stop_id": 29542, "stop_name": "Bay Rd/Bass Hwy", "stop_landmark": ""},
{"disruption_ids": [], "stop_suburb": "Cape Woolamai", "route_type": 3, "stop_latitude": -38.5210381, "stop_longitude": 145.334869, "stop_sequence": 0, "stop_ticket": null, "stop_id": 25809, "stop_name": "Cape Woolamai/Phillip Island Rd", "stop_landmark": "Cape Woolamai"},
{"disruption_ids": [], "stop_suburb": "Caulfield East", "route_type": 3, "stop_latitude": -37.8774567, "stop_longitude": 145.042526, "stop_sequence": 0, "stop_ticket": {"ticket_type": "", "zone": "Regional,Zone 1", "is_free_fare_zone": false, "ticket_machine": false, "ticket_checks": false, "vline_reservation": false, "ticket_zones": [1]}, "stop_id": 1036, "stop_name": "Caulfield Railway Station", "stop_landmark": ""},
{"disruption_ids": [], "stop_suburb": "Clyde", "route_type": 3, "stop_latitude": -38.15898, "stop_longitude": 145.31839, "stop_sequence": 0, "stop_ticket": {"ticket_type": "", "zone": "Zone 2", "is_free_fare_zone": false, "ticket_machine": false, "ticket_checks": false, "vline_reservation": false, "ticket_zones": [2]}, "stop_id": 4454, "stop_name": "Clyde-Five Ways Rd/South Gippsland Hwy", "stop_landmark": ""},
{"disruption_ids": [], "stop_suburb": "Devon Meadows", "route_type": 3, "stop_latitude": -38.15947, "stop_longitude": 145.318115, "stop_sequence": 0, "stop_ticket": {"ticket_type": "", "zone": "Zone 2", "is_free_fare_zone": false, "ticket_machine": false, "ticket_checks": false, "vline_reservation": false, "ticket_zones": [2]}, "stop_id": 4147, "stop_name": "Clyde-Five Ways Rd/South Gippsland Hwy", "stop_landmark": ""},
{"disruption_ids": [], "stop_suburb": "Corinella", "route_type": 3, "stop_latitude": -38.4330673, "stop_longitude": 145.49675, "stop_sequence": 0, "stop_ticket": {"ticket_type": "", "zone": "Regional,Zone 6,Zone 7", "is_free_fare_zone": false, "ticket_machine": false, "ticket_checks": false, "vline_reservation": false, "ticket_zones": [6, 7]}, "stop_id": 4460, "stop_name": "Corinella Rd/Bass Hwy", "stop_landmark": ""},
{"disruption_ids": [], "stop_suburb": "Cowes", "route_type": 3, "stop_latitude": -38.4521, "stop_longitude": 145.240173, "stop_sequence": 0, "stop_ticket": {"ticket_type": "", "zone": "Regional,Zone 8", "is_free_fare_zone": false, "ticket_machine": false, "ticket_checks": false, "vline_reservation": false, "ticket_zones": [8]}, "stop_id": 33516, "stop_name": "Cowes Transit Centre/Church St", "stop_landmark": "Cowes Transit Centre"},
{"disruption_ids": [], "stop_suburb": "Cranbourne", "route_type": 3, "stop_latitude": -38.108902, "stop_longitude": 145.283173, "stop_sequence": 0, "stop_ticket": {"ticket_type": "", "zone": "Zone 2", "is_free_fare_zone": false, "ticket_machine": false, "ticket_checks": false, "vline_reservation": false, "ticket_zones": [2]}, "stop_id": 4537, "stop_name": "Cranbourne Park SC/High St", "stop_landmark": "Cranbourne Park SC"},
{"disruption_ids": [], "stop_suburb": "Cranbourne", "route_type": 3, "stop_latitude": -38.10964, "stop_longitude": 145.284164, "stop_sequence": 0, "stop_ticket": null, "stop_id": 4452, "stop_name": "Cranbourne Park SC/Lyall St", "stop_landmark": "Cranbourne Park SC"},
{"disruption_ids": [], "stop_suburb": "Dandenong", "route_type": 3, "stop_latitude": -37.9899673, "stop_longitude": 145.209732, "stop_sequence": 0, "stop_ticket": {"ticket_type": "", "zone": "Regional,Zone 2", "is_free_fare_zone": false, "ticket_machine": false, "ticket_checks": false, "vline_reservation": false, "ticket_zones": [2]}, "stop_id": 1049, "stop_name": "Dandenong Railway Station", "stop_landmark": "Dandenong Railway Station"},
{"disruption_ids": [], "stop_suburb": "Grantville", "route_type": 3, "stop_latitude": -38.3984375, "stop_longitude": 145.5374, "stop_sequence": 0, "stop_ticket": null, "stop_id": 27134, "stop_name": "Deep Creek St/Bass Hwy", "stop_landmark": ""},
{"disruption_ids": [], "stop_suburb": "Smiths Beach", "route_type": 3, "stop_latitude": -38.4969368, "stop_longitude": 145.259476, "stop_sequence": 0, "stop_ticket": null, "stop_id": 25825, "stop_name": "Dolphin Dr/Back Beach Rd", "stop_landmark": ""},
{"disruption_ids": [], "stop_suburb": "Newhaven", "route_type": 3, "stop_latitude": -38.5149, "stop_longitude": 145.357788, "stop_sequence": 0, "stop_ticket": {"ticket_type": "", "zone": "Regional,Zone 7,Zone 8", "is_free_fare_zone": false, "ticket_machine": false, "ticket_checks": false, "vline_reservation": false, "ticket_zones": [7, 8]}, "stop_id": 4153, "stop_name": "Forrest Ave/Phillip Island Rd", "stop_landmark": ""},
{"disruption_ids": [], "stop_suburb": "Surf Beach", "route_type": 3, "stop_latitude": -38.50789, "stop_longitude": 145.291122, "stop_sequence": 0, "stop_ticket": null, "stop_id": 25814, "stop_name": "General Store/Phillip Island Rd", "stop_landmark": "General Store"},
{"disruption_ids": [], "stop_suburb": "Grantville", "route_type": 3, "stop_latitude": -38.4081535, "stop_longitude": 145.530045, "stop_sequence": 0, "stop_ticket": {"ticket_type": "", "zone": "Regional,Zone 6", "is_free_fare_zone": false, "ticket_machine": false, "ticket_checks": false, "vline_reservation": false, "ticket_zones": [6]}, "stop_id": 4564, "stop_name": "Grantville-Glen Alvie Rd/Bass Hwy", "stop_landmark": ""},
{"disruption_ids": [], "stop_suburb": "The Gurdies", "route_type": 3, "stop_latitude": -38.3715363, "stop_longitude": 145.563065, "stop_sequence": 0, "stop_ticket": {"ticket_type": "", "zone": "Regional,Zone 5,Zone 6", "is_free_fare_zone": false, "ticket_machine": false, "ticket_checks": false, "vline_reservation": false, "ticket_zones": [5, 6]}, "stop_id": 4475, "stop_name": "Gurdies - St Helier Rd/Bass Hwy", "stop_landmark": ""},
{"disruption_ids": [], "stop_suburb": "Inverloch", "route_type": 3, "stop_latitude": -38.63119, "stop_longitude": 145.727463, "stop_sequence": 0, "stop_ticket": null, "stop_id": 32527, "stop_name": "Inverloch Police Station/Bayview Ave", "stop_landmark": "Inverloch Police Station"},
{"disruption_ids": [], "stop_suburb": "Koo Wee Rup", "route_type": 3, "stop_latitude": -38.1999779, "stop_longitude": 145.490265, "stop_sequence": 0, "stop_ticket": {"ticket_type": "", "zone": "Regional,Zone 3,Zone 4", "is_free_fare_zone": false, "ticket_machine": false, "ticket_checks": false, "vline_reservation": false, "ticket_zones": [3, 4]}, "stop_id": 4456, "stop_name": "Koo Wee Rup Bus Interchange/Rossiter Rd", "stop_landmark": "Koo Wee Rup Bus Interchange"},
{"disruption_ids": [], "stop_suburb": "Lang Lang", "route_type": 3, "stop_latitude": -38.265583, "stop_longitude": 145.562866, "stop_sequence": 0, "stop_ticket": {"ticket_type": "", "zone": "Regional,Zone 4,Zone 5", "is_free_fare_zone": false, "ticket_machine": false, "ticket_checks": false, "vline_reservation": false, "ticket_zones": [4, 5]}, "stop_id": 4457, "stop_name": "Lang Lang Bus Interchange/Western Port Rd", "stop_landmark": "Lang Lang Bus Interchange"},
{"disruption_ids": [], "stop_suburb": "Tooradin", "route_type": 3, "stop_latitude": -38.21366, "stop_longitude": 145.381546, "stop_sequence": 0, "stop_ticket": {"ticket_type": "", "zone": "Zone 2", "is_free_fare_zone": false, "ticket_machine": false, "ticket_checks": false, "vline_reservation": false, "ticket_zones": [2]}, "stop_id": 4169, "stop_name": "Lyall St/South Gippsland Hwy", "stop_landmark": ""},
{"disruption_ids": [], "stop_suburb": "Tooradin", "route_type": 3, "stop_latitude": -38.21375, "stop_longitude": 145.381042, "stop_sequence": 0, "stop_ticket": {"ticket_type": "", "zone": "Regional", "is_free_fare_zone": false, "ticket_machine": false, "ticket_checks": false, "vline_reservation": false, "ticket_zones": []}, "stop_id": 4587, "stop_name": "Mickle St/South Gippsland Hwy", "stop_landmark": ""},
{"disruption_ids": [], "stop_suburb": "Wonthaggi", "route_type": 3, "stop_latitude": -38.59585, "stop_longitude": 145.59198, "stop_sequence": 0, "stop_ticket": null, "stop_id": 4152, "stop_name": "Miners Rest Hotel/137 McKenzie St", "stop_landmark": "Miners Rest Hotel"},
{"disruption_ids": [], "stop_suburb": "Wonthaggi", "route_type": 3, "stop_latitude": -38.5957527, "stop_longitude": 145.592148, "stop_sequence": 0, "stop_ticket": null, "stop_id": 4366, "stop_name": "Miners Rest Hotel/138 McKenzie St", "stop_landmark": "Miners Rest Hotel"},
{"disruption_ids": [], "stop_suburb": "Bass", "route_type": 3, "stop_latitude": -38.4839821, "stop_longitude": 145.46637, "stop_sequence": 0, "stop_ticket": {"ticket_type": "", "zone": "Regional,Zone 7,Zone 8", "is_free_fare_zone": false, "ticket_machine": false, "ticket_checks": false, "vline_reservation": false, "ticket_zones": [7, 8]}, "stop_id": 4560, "stop_name": "opp 5 Bass School Rd", "stop_landmark": ""},
{"disruption_ids": [], "stop_suburb": "Dalyston", "route_type": 3, "stop_latitude": -38.56346, "stop_longitude": 145.54657, "stop_sequence": 0, "stop_ticket": {"ticket_type": "", "zone": "Regional,Zone 9", "is_free_fare_zone": false, "ticket_machine": false, "ticket_checks": false, "vline_reservation": false, "ticket_zones": [9]}, "stop_id": 4470, "stop_name": "Ozone Hotel/Bass Hwy", "stop_landmark": "Ozone Hotel"},
{"disruption_ids": [], "stop_suburb": "Sunset Strip", "route_type": 3, "stop_latitude": -38.4979, "stop_longitude": 145.268967, "stop_sequence": 0, "stop_ticket": null, "stop_id": 25822, "stop_name": "Panorama Ave/Back Beach Rd", "stop_landmark": ""},
{"disruption_ids": [], "stop_suburb": "Kilcunda", "route_type": 3, "stop_latitude": -38.5494576, "stop_longitude": 145.475922, "stop_sequence": 0, "stop_ticket": {"ticket_type": "", "zone": "Regional,Zone 8", "is_free_fare_zone": false, "ticket_machine": false, "ticket_checks": false, "vline_reservation": false, "ticket_zones": [8]}, "stop_id": 4469, "stop_name": "Peppermint Rd/Bass Hwy", "stop_landmark": ""},
{"disruption_ids": [], "stop_suburb": "Grantville", "route_type": 3, "stop_latitude": -38.4069557, "stop_longitude": 145.53038, "stop_sequence": 0, "stop_ticket": {"ticket_type": "", "zone": "Regional,Zone 6", "is_free_fare_zone": false, "ticket_machine": false, "ticket_checks": false, "vline_reservation": false, "ticket_zones": [6]}, "stop_id": 4459, "stop_name": "Pier Rd/Bass Hwy", "stop_landmark": ""},
{"disruption_ids": [], "stop_suburb": "Pioneer Bay", "route_type": 3, "stop_latitude": -38.3815, "stop_longitude": 145.553, "stop_sequence": 0, "stop_ticket": null, "stop_id": 32462, "stop_name": "Pioneer Bay/Bass Hwy", "stop_landmark": "Pioneer Bay"},
{"disruption_ids": [], "stop_suburb": "Inverloch", "route_type": 3, "stop_latitude": -38.63461, "stop_longitude": 145.729675, "stop_sequence": 0, "stop_ticket": {"ticket_type": "", "zone": "Regional,Zone 11", "is_free_fare_zone": false, "ticket_machine": false, "ticket_checks": false, "vline_reservation": false, "ticket_zones": [11]}, "stop_id": 4474, "stop_name": "Ramsay Bvd/The Esplanade", "stop_landmark": ""},
{"disruption_ids": [], "stop_suburb": "San Remo", "route_type": 3, "stop_latitude": -38.52066, "stop_longitude": 145.37117, "stop_sequence": 0, "stop_ticket": {"ticket_type": "", "zone": "Regional,Zone 7,Zone 8", "is_free_fare_zone": false, "ticket_machine": false, "ticket_checks": false, "vline_reservation": false, "ticket_zones": [7, 8]}, "stop_id": 4465, "stop_name": "San Remo Post Office/Marine Pde", "stop_landmark": "San Remo Post Office"},
{"disruption_ids": [], "stop_suburb": "Cape Paterson", "route_type": 3, "stop_latitude": -38.6678467, "stop_longitude": 145.621124, "stop_sequence": 0, "stop_ticket": {"ticket_type": "", "zone": "Regional,Zone 10", "is_free_fare_zone": false, "ticket_machine": false, "ticket_checks": false, "vline_reservation": false, "ticket_zones": [10]}, "stop_id": 4473, "stop_name": "Seaward Dr/Cape Paterson Rd", "stop_landmark": ""},
{"disruption_ids": [], "stop_suburb": "North Wonthaggi", "route_type": 3, "stop_latitude": -38.58968, "stop_longitude": 145.582809, "stop_sequence": 0, "stop_ticket": {"ticket_type": "", "zone": "Regional,Zone 9", "is_free_fare_zone": false, "ticket_machine": false, "ticket_checks": false, "vline_reservation": false, "ticket_zones": [9]}, "stop_id": 4471, "stop_name": "South Dudley Rd/Bass Hwy", "stop_landmark": ""},
{"disruption_ids": [], "stop_suburb": "Melbourne City", "route_type": 3, "stop_latitude": -37.8150864, "stop_longitude": 144.951157, "stop_sequence": 0, "stop_ticket": {"ticket_type": "", "zone": "Regional,Zone 1", "is_free_fare_zone": false, "ticket_machine": false, "ticket_checks": false, "vline_reservation": true, "ticket_zones": [1]}, "stop_id": 4529, "stop_name": "Southern Cross Coach Terminal/Spencer St", "stop_landmark": "Southern Cross Coach Terminal"},
{"disruption_ids": [], "stop_suburb": "Melbourne City", "route_type": 3, "stop_latitude": -37.8183327, "stop_longitude": 144.95253, "stop_sequence": 0, "stop_ticket": {"ticket_type": "", "zone": "Regional,Zone 1", "is_free_fare_zone": false, "ticket_machine": true, "ticket_checks": true, "vline_reservation": true, "ticket_zones": [1]}, "stop_id": 1181, "stop_name": "Southern Cross Railway Station", "stop_landmark": ""},
{"disruption_ids": [], "stop_suburb": "Glen Forbes", "route_type": 3, "stop_latitude": -38.417366, "stop_longitude": 145.52211, "stop_sequence": 0, "stop_ticket": {"ticket_type": "", "zone": "Regional,Zone 6", "is_free_fare_zone": false, "ticket_machine": false, "ticket_checks": false, "vline_reservation": false, "ticket_zones": [6]}, "stop_id": 4496, "stop_name": "Stanley Rd/Bass Hwy", "stop_landmark": ""},
{"disruption_ids": [], "stop_suburb": "Cranbourne", "route_type": 3, "stop_latitude": -38.1016426, "stop_longitude": 145.2827, "stop_sequence": 0, "stop_ticket": {"ticket_type": "", "zone": "Zone 2", "is_free_fare_zone": false, "ticket_machine": false, "ticket_checks": false, "vline_reservation": false, "ticket_zones": [2]}, "stop_id": 4437, "stop_name": "Station St/High St", "stop_landmark": ""},
{"disruption_ids": [], "stop_suburb": "Sunderland Bay", "route_type": 3, "stop_latitude": -38.50274, "stop_longitude": 145.281174, "stop_sequence": 0, "stop_ticket": {"ticket_type": "", "zone": "Regional,Zone 8", "is_free_fare_zone": false, "ticket_machine": false, "ticket_checks": false, "vline_reservation": false, "ticket_zones": [8]}, "stop_id": 4550, "stop_name": "Sunderland Bay/Phillip Island Rd", "stop_landmark": "Sunderland Bay"},
{"disruption_ids": [], "stop_suburb": "Sunset Strip", "route_type": 3, "stop_latitude": -38.49776, "stop_longitude": 145.2689, "stop_sequence": 0, "stop_ticket": null, "stop_id": 32110, "stop_name": "Sunset Strip/Back Beach Rd", "stop_landmark": "Sunset Strip"},
{"disruption_ids": [], "stop_suburb": "Wimbledon Heights", "route_type": 3, "stop_latitude": -38.4816132, "stop_longitude": 145.239441, "stop_sequence": 0, "stop_ticket": null, "stop_id": 25828, "stop_name": "Ventnor Beach Rd/Gap Rd", "stop_landmark": ""},
{"disruption_ids": [], "stop_suburb": "Cowes", "route_type": 3, "stop_latitude": -38.45905, "stop_longitude": 145.239075, "stop_sequence": 0, "stop_ticket": {"ticket_type": "", "zone": "Regional,Zone 8", "is_free_fare_zone": false, "ticket_machine": false, "ticket_checks": false, "vline_reservation": false, "ticket_zones": [8]}, "stop_id": 4467, "stop_name": "Walton St/Thompson Ave", "stop_landmark": ""},
{"disruption_ids": [], "stop_suburb": "Wonthaggi", "route_type": 3, "stop_latitude": -38.60485, "stop_longitude": 145.5884, "stop_sequence": 0, "stop_ticket": null, "stop_id": 29567, "stop_name": "Wonthaggi Bus Interchange/Biggs Dr", "stop_landmark": "Wonthaggi Bus Interchange"},
{"disruption_ids": [], "stop_suburb": "North Wonthaggi", "route_type": 3, "stop_latitude": -38.58988, "stop_longitude": 145.582932, "stop_sequence": 0, "stop_ticket": {"ticket_type": "", "zone": "Regional,Zone 9", "is_free_fare_zone": false, "ticket_machine": false, "ticket_checks": false, "vline_reservation": false, "ticket_zones": [9]}, "stop_id": 4557, "stop_name": "Wonthaggi Community Garden/Bass Hwy", "stop_landmark": "Wonthaggi Community Garden"},
{"disruption_ids": [], "stop_suburb": "Bairnsdale", "route_type": 3, "stop_latitude": -37.82551, "stop_longitude": 147.632278, "stop_sequence": 0, "stop_ticket": {"ticket_type": "", "zone": "Regional", "is_free_fare_zone": false, "ticket_machine": false, "ticket_checks": false, "vline_reservation": false, "ticket_zones": []}, "stop_id": 4253, "stop_name": "Bailey St/Princes Hwy", "stop_landmark": ""},
{"disruption_ids": [], "stop_suburb": "Bairnsdale", "route_type": 3, "stop_latitude": -37.82846, "stop_longitude": 147.627411, "stop_sequence": 0, "stop_ticket": {"ticket_type": "", "zone": "Regional", "is_free_fare_zone": false, "ticket_machine": false, "ticket_checks": false, "vline_reservation": true, "ticket_zones": []}, "stop_id": 1504, "stop_name": "Bairnsdale Railway Station", "stop_landmark": "Bairnsdale Railway Station"},
{"disruption_ids": [], "stop_suburb": "Bairnsdale", "route_type": 3, "stop_latitude": -37.8284035, "stop_longitude": 147.6274, "stop_sequence": 0, "stop_ticket": null, "stop_id": 4107, "stop_name": "Bairnsdale Railway Station/MacLeod St", "stop_landmark": "Bairnsdale Railway Station"},
{"disruption_ids": [], "stop_suburb": "Lake Tyers Beach", "route_type": 3, "stop_latitude": -37.861866, "stop_longitude": 148.070679, "stop_sequence": 0, "stop_ticket": {"ticket_type": "", "zone": "Regional", "is_free_fare_zone": false, "ticket_machine": false, "ticket_checks": false, "vline_reservation": false, "ticket_zones": []}, "stop_id": 4262, "stop_name": "Barracouta Rd/Lake Tyers Rd", "stop_landmark": ""},
{"disruption_ids": [], "stop_suburb": "Bunyip", "route_type": 3, "stop_latitude": -38.09911, "stop_longitude": 145.720764, "stop_sequence": 0, "stop_ticket": {"ticket_type": "", "zone": "Regional,Zone 4,Zone 5", "is_free_fare_zone": false, "ticket_machine": false, "ticket_checks": true, "vline_reservation": false, "ticket_zones": [4, 5]}, "stop_id": 1512, "stop_name": "Bunyip Railway Station", "stop_landmark": ""},
{"disruption_ids": [], "stop_suburb": "Caulfield East", "route_type": 3, "stop_latitude": -37.8774567, "stop_longitude": 145.042526, "stop_sequence": 0, "stop_ticket": {"ticket_type": "", "zone": "Regional,Zone 1", "is_free_fare_zone": false, "ticket_machine": false, "ticket_checks": false, "vline_reservation": false, "ticket_zones": [1]}, "stop_id": 1036, "stop_name": "Caulfield Railway Station", "stop_landmark": ""},
{"disruption_ids": [], "stop_suburb": "Clayton", "route_type": 3, "stop_latitude": -37.9251671, "stop_longitude": 145.120682, "stop_sequence": 0, "stop_ticket": {"ticket_type": "", "zone": "Zone 2", "is_free_fare_zone": false, "ticket_machine": false, "ticket_checks": false, "vline_reservation": false, "ticket_zones": [2]}, "stop_id": 1040, "stop_name": "Clayton Railway Station", "stop_landmark": "Clayton Railway Station"},
{"disruption_ids": [], "stop_suburb": "Dandenong", "route_type": 3, "stop_latitude": -37.9899673, "stop_longitude": 145.209732, "stop_sequence": 0, "stop_ticket": {"ticket_type": "", "zone": "Regional,Zone 2", "is_free_fare_zone": false, "ticket_machine": false, "ticket_checks": false, "vline_reservation": false, "ticket_zones": [2]}, "stop_id": 1049, "stop_name": "Dandenong Railway Station", "stop_landmark": "Dandenong Railway Station"},
{"disruption_ids": [], "stop_suburb": "Drouin", "route_type": 3, "stop_latitude": -38.13645, "stop_longitude": 145.855942, "stop_sequence": 0, "stop_ticket": {"ticket_type": "", "zone": "Regional,Zone 6", "is_free_fare_zone": false, "ticket_machine": true, "ticket_checks": true, "vline_reservation": true, "ticket_zones": [6]}, "stop_id": 1521, "stop_name": "Drouin Railway Station", "stop_landmark": "Drouin Railway Station"},
{"disruption_ids": [], "stop_suburb": "Melbourne City", "route_type": 3, "stop_latitude": -37.81831, "stop_longitude": 144.966965, "stop_sequence": 0, "stop_ticket": {"ticket_type": "", "zone": "Regional,Zone 1", "is_free_fare_zone": false, "ticket_machine": false, "ticket_checks": true, "vline_reservation": true, "ticket_zones": [1]}, "stop_id": 1071, "stop_name": "Flinders Street Railway Station", "stop_landmark": ""},
{"disruption_ids": [], "stop_suburb": "Swan Reach", "route_type": 3, "stop_latitude": -37.8402519, "stop_longitude": 147.9273, "stop_sequence": 0, "stop_ticket": null, "stop_id": 30926, "stop_name": "Forest Tech/Princes Hwy", "stop_landmark": "Forest Tech"},
{"disruption_ids": [], "stop_suburb": "Garfield", "route_type": 3, "stop_latitude": -38.09103, "stop_longitude": 145.674225, "stop_sequence": 0, "stop_ticket": {"ticket_type": "", "zone": "Regional,Zone 4,Zone 5", "is_free_fare_zone": false, "ticket_machine": true, "ticket_checks": true, "vline_reservation": false, "ticket_zones": [4, 5]}, "stop_id": 1526, "stop_name": "Garfield Railway Station", "stop_landmark": "Garfield Railway Station"},
{"disruption_ids": [], "stop_suburb": "Nicholson", "route_type": 3, "stop_latitude": -37.81664, "stop_longitude": 147.739059, "stop_sequence": 0, "stop_ticket": {"ticket_type": "", "zone": "Regional", "is_free_fare_zone": false, "ticket_machine": false, "ticket_checks": false, "vline_reservation": false, "ticket_zones": []}, "stop_id": 4254, "stop_name": "General Store/Princes Hwy", "stop_landmark": "General Store"},
{"disruption_ids": [], "stop_suburb": "Johnsonville", "route_type": 3, "stop_latitude": -37.8201, "stop_longitude": 147.8312, "stop_sequence": 0, "stop_ticket": {"ticket_type": "", "zone": "Regional", "is_free_fare_zone": false, "ticket_machine": false, "ticket_checks": false, "vline_reservation": false, "ticket_zones": []}, "stop_id": 4255, "stop_name": "General Store/Princes Hwy", "stop_landmark": "General Store"},
{"disruption_ids": [], "stop_suburb": "Swan Reach", "route_type": 3, "stop_latitude": -37.822, "stop_longitude": 147.856766, "stop_sequence": 0, "stop_ticket": {"ticket_type": "", "zone": "Regional", "is_free_fare_zone": false, "ticket_machine": false, "ticket_checks": false, "vline_reservation": false, "ticket_zones": []}, "stop_id": 4256, "stop_name": "General Store/Princes Hwy", "stop_landmark": "General Store"},
{"disruption_ids": [], "stop_suburb": "Sale", "route_type": 3, "stop_latitude": -38.1072273, "stop_longitude": 147.0635, "stop_sequence": 0, "stop_ticket": {"ticket_type": "", "zone": "Regional", "is_free_fare_zone": false, "ticket_machine": false, "ticket_checks": false, "vline_reservation": false, "ticket_zones": []}, "stop_id": 4074, "stop_name": "Gippsland Shopping Centre/Cunninghame St", "stop_landmark": "Gippsland Shopping Centre"},
{"disruption_ids": [], "stop_suburb": "Wurruk", "route_type": 3, "stop_latitude": -38.10513, "stop_longitude": 147.031418, "stop_sequence": 0, "stop_ticket": {"ticket_type": "", "zone": "Regional", "is_free_fare_zone": false, "ticket_machine": false, "ticket_checks": false, "vline_reservation": false, "ticket_zones": []}, "stop_id": 4052, "stop_name": "Hunt Pl/Princes Hwy", "stop_landmark": ""},
{"disruption_ids": [], "stop_suburb": "Kalimna West", "route_type": 3, "stop_latitude": -37.8688545, "stop_longitude": 147.957214, "stop_sequence": 0, "stop_ticket": {"ticket_type": "", "zone": "Regional", "is_free_fare_zone": false, "ticket_machine": false, "ticket_checks": false, "vline_reservation": false, "ticket_zones": []}, "stop_id": 4257, "stop_name": "Hunters Lane/Princes Hwy", "stop_landmark": ""},
{"disruption_ids": [], "stop_suburb": "Lakes Entrance", "route_type": 3, "stop_latitude": -37.87477, "stop_longitude": 148.007462, "stop_sequence": 0, "stop_ticket": null, "stop_id": 4588, "stop_name": "Jetty Rd/Princes Hwy", "stop_landmark": ""},
{"disruption_ids": [], "stop_suburb": "Rosedale", "route_type": 3, "stop_latitude": -38.1509933, "stop_longitude": 146.7847, "stop_sequence": 0, "stop_ticket": {"ticket_type": "", "zone": "Regional,Zone 14", "is_free_fare_zone": false, "ticket_machine": false, "ticket_checks": false, "vline_reservation": false, "ticket_zones": [14]}, "stop_id": 4304, "stop_name": "Latrobe St/Princes Hwy", "stop_landmark": ""},
{"disruption_ids": [], "stop_suburb": "Lindenow", "route_type": 3, "stop_latitude": -37.8810158, "stop_longitude": 147.421783, "stop_sequence": 0, "stop_ticket": {"ticket_type": "", "zone": "Regional", "is_free_fare_zone": false, "ticket_machine": false, "ticket_checks": false, "vline_reservation": false, "ticket_zones": []}, "stop_id": 4250, "stop_name": "Lindenow Rd/Princes Hwy", "stop_landmark": ""},
{"disruption_ids": [], "stop_suburb": "Longwarry", "route_type": 3, "stop_latitude": -38.1109924, "stop_longitude": 145.766861, "stop_sequence": 0, "stop_ticket": {"ticket_type": "", "zone": "Regional,Zone 5,Zone 6", "is_free_fare_zone": false, "ticket_machine": false, "ticket_checks": true, "vline_reservation": false, "ticket_zones": [5, 6]}, "stop_id": 1536, "stop_name": "Longwarry Railway Station", "stop_landmark": "Longwarry Railway Station"},
{"disruption_ids": [], "stop_suburb": "Kalimna", "route_type": 3, "stop_latitude": -37.8792458, "stop_longitude": 147.961884, "stop_sequence": 0, "stop_ticket": null, "stop_id": 4258, "stop_name": "Lookout Rd/Princes Hwy", "stop_landmark": ""},
{"disruption_ids": [], "stop_suburb": "Marlo", "route_type": 3, "stop_latitude": -37.79597, "stop_longitude": 148.53923, "stop_sequence": 0, "stop_ticket": null, "stop_id": 30279, "stop_name": "Marlo Primary School/Jorgensen St", "stop_landmark": "Marlo Primary School"},
{"disruption_ids": [], "stop_suburb": "Moe", "route_type": 3, "stop_latitude": -38.1769066, "stop_longitude": 146.260574, "stop_sequence": 0, "stop_ticket": {"ticket_type": "", "zone": "Regional,Zone 10,Zone 9", "is_free_fare_zone": false, "ticket_machine": true, "ticket_checks": true, "vline_reservation": true, "ticket_zones": [10, 9]}, "stop_id": 1540, "stop_name": "Moe Railway Station", "stop_landmark": "Moe Station"},
{"disruption_ids": [], "stop_suburb": "Morwell", "route_type": 3, "stop_latitude": -38.2368469, "stop_longitude": 146.397736, "stop_sequence": 0, "stop_ticket": {"ticket_type": "", "zone": "Regional,Zone 11", "is_free_fare_zone": false, "ticket_machine": false, "ticket_checks": false, "vline_reservation": true, "ticket_zones": [11]}, "stop_id": 1542, "stop_name": "Morwell Railway Station", "stop_landmark": "Morwell Railway Station"},
{"disruption_ids": [], "stop_suburb": "Nar Nar Goon", "route_type": 3, "stop_latitude": -38.08159, "stop_longitude": 145.571671, "stop_sequence": 0, "stop_ticket": {"ticket_type": "", "zone": "Regional,Zone 3,Zone 4", "is_free_fare_zone": false, "ticket_machine": false, "ticket_checks": true, "vline_reservation": false, "ticket_zones": [3, 4]}, "stop_id": 1545, "stop_name": "Nar Nar Goon Railway Station", "stop_landmark": "Nar Nar Goon Railway Station"},
{"disruption_ids": [], "stop_suburb": "Orbost", "route_type": 3, "stop_latitude": -37.70588, "stop_longitude": 148.4553, "stop_sequence": 0, "stop_ticket": null, "stop_id": 4270, "stop_name": "Nicholson St/Wolseley St", "stop_landmark": ""},
{"disruption_ids": [], "stop_suburb": "Nowa Nowa", "route_type": 3, "stop_latitude": -37.73231, "stop_longitude": 148.0916, "stop_sequence": 0, "stop_ticket": {"ticket_type": "", "zone": "Regional", "is_free_fare_zone": false, "ticket_machine": false, "ticket_checks": false, "vline_reservation": false, "ticket_zones": []}, "stop_id": 4527, "stop_name": "Nowa Nowa General Store/Princes Hwy", "stop_landmark": "Nowa Nowa General Store"},